%time,field.header.seq,field.header.stamp,field.header.frame_id,field.child_frame_id,field.transform.translation.x,field.transform.translation.y,field.transform.translation.z,field.transform.rotation.x,field.transform.rotation.y,field.transform.rotation.z,field.transform.rotation.w
1524501376951270592,2993,1524501376951270592,/world,vicon/rs/rs,-0.178154335206,0.343773966762,1.35018052751,0.00417157494055,-0.0251296122406,0.00936803243492,0.999631602401
1524501376952474925,2994,1524501376952474925,/world,vicon/rs/rs,-0.177981949138,0.344394600852,1.35013709109,0.010461447547,-0.0239169163354,0.00978401479458,0.999611330609
1524501376958800665,2995,1524501376958800665,/world,vicon/rs/rs,-0.177868491787,0.344382848795,1.35032103902,0.0123850771204,-0.0231101272707,0.0100390639884,0.99960579684
1524501376968803683,2996,1524501376968803683,/world,vicon/rs/rs,-0.177762120737,0.344445541644,1.35046837359,0.0135501564697,-0.0225606176312,0.009781178685,0.999605792468
1524501376978917820,2997,1524501376978917820,/world,vicon/rs/rs,-0.177676178445,0.344538711324,1.35056761807,0.0119749508791,-0.0225430033722,0.00990155928536,0.999625116068
1524501376988917621,2998,1524501376988917621,/world,vicon/rs/rs,-0.177618562497,0.344570429618,1.350634094,0.0128331875563,-0.0223272441484,0.00999661116141,0.999618362792
1524501377114913474,2999,1524501377114913474,/world,vicon/rs/rs,-0.177217119198,0.344952928365,1.3504931319,0.0130756815621,-0.0238507007434,0.0101250892769,0.999578737866
1524501377115523465,3000,1524501377115523465,/world,vicon/rs/rs,-0.176631993043,0.345125336562,1.35037763489,0.0156704369898,-0.0236999671842,0.00977973165462,0.999548450956
1524501377118889132,3001,1524501377118889132,/world,vicon/rs/rs,-0.176492671721,0.345160151124,1.35034559574,0.0153995849859,-0.0235742227544,0.00970680454834,0.99955634496
1524501377128654130,3002,1524501377128654130,/world,vicon/rs/rs,-0.176265041781,0.34519546807,1.35043012756,0.0108701140548,-0.0234250069031,0.00951610142464,0.999621205
1524501377138760248,3003,1524501377138760248,/world,vicon/rs/rs,-0.176132090123,0.345238622033,1.35026219738,0.00939452415411,-0.0237990326125,0.00922575683118,0.999630048755
1524501377262578636,3004,1524501377262578636,/world,vicon/rs/rs,-0.175463981867,0.345420386996,1.34978637177,0.0102102022825,-0.0230317337488,0.00933608553225,0.999638999098
1524501377262680548,3005,1524501377262680548,/world,vicon/rs/rs,-0.175175619856,0.345477352883,1.34969738439,0.00908035421526,-0.0227366090412,0.00924784193758,0.999657476937
1524501377262313378,3006,1524501377262313378,/world,vicon/rs/rs,-0.174806252293,0.345460248958,1.34980998148,0.00951992821708,-0.0218818141105,0.00932908137891,0.999671708822
1524501377262920401,3007,1524501377262920401,/world,vicon/rs/rs,-0.174713207074,0.345467740894,1.34980278045,0.00903864229883,-0.0218650343331,0.00909453908382,0.999678704674
1524501377268878405,3008,1524501377268878405,/world,vicon/rs/rs,-0.174723586505,0.34542161799,1.34970832423,0.0130020465054,-0.0214637369889,0.00932445252465,0.999641590454
1524501377278394740,3009,1524501377278394740,/world,vicon/rs/rs,-0.174552377963,0.345240674471,1.35004311922,0.0108925328296,-0.020407486563,0.0104073035914,0.99967823586
1524501377288430025,3010,1524501377288430025,/world,vicon/rs/rs,-0.174472198628,0.345263163956,1.35015301867,0.0114325808137,-0.0200544734066,0.010632178917,0.999676983312
1524501377298523612,3011,1524501377298523612,/world,vicon/rs/rs,-0.174370550414,0.345418989542,1.3500706611,0.0103894158713,-0.0208025357326,0.0100375505787,0.999679229615
1524501377421256607,3012,1524501377421256607,/world,vicon/rs/rs,-0.173711669839,0.34550276097,1.35042505696,0.012162678333,-0.0205615209427,0.0109379887771,0.999654767164
1524501377421659061,3013,1524501377421659061,/world,vicon/rs/rs,-0.173207147638,0.346136166622,1.35055390289,0.00918773394501,-0.0209865329497,0.00837186754349,0.99970248715
1524501377429345638,3014,1524501377429345638,/world,vicon/rs/rs,-0.173212671288,0.346128985857,1.35061191285,0.016566149883,-0.0204512648508,0.00889267501008,0.999614039905
1524501377438627597,3015,1524501377438627597,/world,vicon/rs/rs,-0.173189410482,0.346238168715,1.35055597347,0.014143338713,-0.0212408665268,0.00868349625066,0.999636628207
1524501377565468380,3016,1524501377565468380,/world,vicon/rs/rs,-0.173084553567,0.346207348179,1.35062567689,0.0189488487862,-0.0210052818321,0.00888765106604,0.999560267779
1524501377565799778,3017,1524501377565799778,/world,vicon/rs/rs,-0.172394076334,0.346511235337,1.35145163452,0.0182226190695,-0.0202677812343,0.00929949283524,0.999585250307
1524501377568819458,3018,1524501377568819458,/world,vicon/rs/rs,-0.172277833905,0.346531006127,1.35157977038,0.01738303566,-0.0200400865665,0.0095243861329,0.999602676602
1524501377578773255,3019,1524501377578773255,/world,vicon/rs/rs,-0.172177748134,0.346535766855,1.35169759356,0.0177464673244,-0.0197280300342,0.00984721310422,0.999599369809
1524501377589252295,3020,1524501377589252295,/world,vicon/rs/rs,-0.17206647835,0.346463869984,1.35187724593,0.0186135785131,-0.0191133548056,0.0104943118025,0.999588957413
1524501377601113151,3021,1524501377601113151,/world,vicon/rs/rs,-0.17200904257,0.346507028267,1.35187997504,0.0181145123219,-0.0193682513877,0.0105717794992,0.999592403312
1524501377608669621,3022,1524501377608669621,/world,vicon/rs/rs,-0.17193932715,0.346589090446,1.35198079156,0.0190934913504,-0.0194066539637,0.0103591703421,0.999575663949
1524501377729014111,3023,1524501377729014111,/world,vicon/rs/rs,-0.171890787739,0.346670282237,1.35204781508,0.0185788320048,-0.0195160403821,0.0102114548185,0.999584752465
1524501377729259899,3024,1524501377729259899,/world,vicon/rs/rs,-0.171709661588,0.346812496592,1.35217176024,0.0174309823668,-0.0198836522138,0.0100645958529,0.999599672438
1524501377734153603,3025,1524501377734153603,/world,vicon/rs/rs,-0.17165062832,0.34678229323,1.35226656564,0.0173065002146,-0.0196990102909,0.0104383375767,0.999601658238
1524501377734748053,3026,1524501377734748053,/world,vicon/rs/rs,-0.171327931498,0.347057037497,1.35293219318,0.018398261111,-0.0194690784864,0.0117598680237,0.999571990642
1524501377738364911,3027,1524501377738364911,/world,vicon/rs/rs,-0.171296636098,0.347100774529,1.35302771149,0.0186951871679,-0.0194643660542,0.0118038967382,0.999566054072
1524501377748156500,3028,1524501377748156500,/world,vicon/rs/rs,-0.171272226034,0.347188821598,1.35312346032,0.0215965262099,-0.019202644115,0.011990546058,0.999510417815
1524501377758232336,3029,1524501377758232336,/world,vicon/rs/rs,-0.171251120099,0.347179209338,1.35319842877,0.0201458545195,-0.0194334879543,0.012193594187,0.999533791501
1524501377768690167,3030,1524501377768690167,/world,vicon/rs/rs,-0.17122862759,0.347213967549,1.35320743618,0.0199702494221,-0.0196250802169,0.0122048216868,0.999533435005
1524501377778686333,3031,1524501377778686333,/world,vicon/rs/rs,-0.171211616518,0.34725559222,1.3532190993,0.0194608349397,-0.0197271983434,0.0121292759518,0.999542392405
1524501377788846406,3032,1524501377788846406,/world,vicon/rs/rs,-0.171142702464,0.347327533604,1.35332070719,0.0170939242731,-0.0200479589978,0.0121596104576,0.99957892183
1524501377798827770,3033,1524501377798827770,/world,vicon/rs/rs,-0.171124321745,0.347318162431,1.35340352915,0.0166209337851,-0.0201359748578,0.0123258852467,0.999583092909
1524501377808586080,3034,1524501377808586080,/world,vicon/rs/rs,-0.171117659566,0.347306222797,1.3535314369,0.0163334433358,-0.0198797615535,0.0122940802961,0.999593351968
1524501377819015025,3035,1524501377819015025,/world,vicon/rs/rs,-0.171094631757,0.347295026071,1.353664527,0.0179533783748,-0.0194295278508,0.0122059860532,0.999575501679
1524501377829197705,3036,1524501377829197705,/world,vicon/rs/rs,-0.171081834443,0.347331293529,1.35373874494,0.0179591097262,-0.0192843812407,0.0121969744869,0.999578319508
1524501377839056727,3037,1524501377839056727,/world,vicon/rs/rs,-0.171051276598,0.347379540508,1.35375442944,0.0168944099915,-0.0194295885211,0.0123419791152,0.999592289662
1524501377848912600,3038,1524501377848912600,/world,vicon/rs/rs,-0.1710281848,0.347377087774,1.35378000089,0.0179019936892,-0.0192619612118,0.0123809676241,0.999577514309
1524501377858710558,3039,1524501377858710558,/world,vicon/rs/rs,-0.171022559839,0.347414029514,1.35379180207,0.0204611329245,-0.0192085785979,0.0127217242222,0.9995251524
1524501377868793963,3040,1524501377868793963,/world,vicon/rs/rs,-0.171062829639,0.347355278496,1.35381187807,0.0179598313124,-0.0193961936868,0.012659357692,0.999570394116
1524501377878797379,3041,1524501377878797379,/world,vicon/rs/rs,-0.171071871338,0.347357013524,1.35383276942,0.0193808630511,-0.0195977109686,0.0128183347436,0.999537894312
1524501377888901988,3042,1524501377888901988,/world,vicon/rs/rs,-0.171062547536,0.347373324295,1.35385199494,0.0195041989257,-0.019539314754,0.0127765755034,0.999537173156
1524501377899647737,3043,1524501377899647737,/world,vicon/rs/rs,-0.171054646262,0.347363507824,1.35386338562,0.0193713321634,-0.019391960774,0.0130118494221,0.999539591573
1524501377911141784,3044,1524501377911141784,/world,vicon/rs/rs,-0.171025364851,0.34736314252,1.35388163553,0.0188057146271,-0.0192223268674,0.0130612435759,0.999553025689
1524501377918923781,3045,1524501377918923781,/world,vicon/rs/rs,-0.171012365301,0.347353167583,1.35387471705,0.0180906656684,-0.0189662378243,0.0131416281267,0.999570061201
1524501377928889071,3046,1524501377928889071,/world,vicon/rs/rs,-0.171022696259,0.347346830075,1.35386474687,0.0183031550783,-0.0187838998885,0.01325639401,0.999568120559
1524501377938773830,3047,1524501377938773830,/world,vicon/rs/rs,-0.1710449634,0.347344679486,1.35384047891,0.0181454564229,-0.0188909044972,0.0133299272064,0.999568001278
1524501377948761073,3048,1524501377948761073,/world,vicon/rs/rs,-0.171054705376,0.347333710255,1.35378477413,0.0190010558007,-0.0192305128881,0.0135285343712,0.999542958562
1524501377958783958,3049,1524501377958783958,/world,vicon/rs/rs,-0.171059782691,0.347268561738,1.35370115984,0.018900121288,-0.0193858708344,0.0136144261896,0.999540704937
1524501377968923199,3050,1524501377968923199,/world,vicon/rs/rs,-0.171077981488,0.347203200946,1.35361898791,0.0171421431322,-0.019464117554,0.0137167225995,0.999569480615
1524501377978849511,3051,1524501377978849511,/world,vicon/rs/rs,-0.17108300795,0.347104926473,1.35353987507,0.0183781103449,-0.0196562676085,0.0139456457928,0.999540592056
1524501377989141796,3052,1524501377989141796,/world,vicon/rs/rs,-0.171067218042,0.347049707896,1.35346900386,0.0179648019818,-0.019754287973,0.0139741957055,0.999545774765
1524501377998964300,3053,1524501377998964300,/world,vicon/rs/rs,-0.171036357394,0.34700042313,1.35346185503,0.0194367828379,-0.01957229209,0.0138656895072,0.999523326146
1524501378009716873,3054,1524501378009716873,/world,vicon/rs/rs,-0.171000097304,0.347007068717,1.35342645799,0.0192422425855,-0.019443191942,0.0139005857076,0.999529125191
1524501378018909158,3055,1524501378018909158,/world,vicon/rs/rs,-0.170931671147,0.34690611475,1.35343248263,0.021077239581,-0.019090850374,0.0139419316914,0.999498330136
1524501378028863189,3056,1524501378028863189,/world,vicon/rs/rs,-0.17088786225,0.346757037854,1.35341417307,0.0260798438928,-0.0184551979397,0.0141606574879,0.999389175042
1524501378038932392,3057,1524501378038932392,/world,vicon/rs/rs,-0.170801913718,0.346717710434,1.35332689044,0.0185910453045,-0.0194993457142,0.0143756973768,0.99953363519
1524501378050753837,3058,1524501378050753837,/world,vicon/rs/rs,-0.170736621967,0.346606609112,1.35326475926,0.0221731360817,-0.0188473308179,0.0142905187904,0.999474317444
1524501378058929263,3059,1524501378058929263,/world,vicon/rs/rs,-0.170613217231,0.34668095196,1.35320333783,0.0201281993758,-0.0194189220411,0.0145393108688,0.999503061274
1524501378069051663,3060,1524501378069051663,/world,vicon/rs/rs,-0.170523243,0.34666545344,1.3531888572,0.0201741554504,-0.0195172480351,0.0145444193697,0.999500145246
1524501378079234052,3061,1524501378079234052,/world,vicon/rs/rs,-0.170413061517,0.346640224567,1.35319845433,0.0203022263714,-0.0194002226787,0.0144346452538,0.9995014217
1524501378089155955,3062,1524501378089155955,/world,vicon/rs/rs,-0.170262646929,0.346551939812,1.35316996294,0.0193657415402,-0.0194641528629,0.014344026008,0.999520066695
1524501378098856341,3063,1524501378098856341,/world,vicon/rs/rs,-0.170073976664,0.346532547144,1.3531257206,0.0194797034545,-0.0192935657006,0.0141998651555,0.999523217992
1524501378109051941,3064,1524501378109051941,/world,vicon/rs/rs,-0.1699063891,0.346508307481,1.35312681726,0.0190734551426,-0.0192052010448,0.0142747481263,0.999531687906
1524501378120253697,3065,1524501378120253697,/world,vicon/rs/rs,-0.169746471121,0.346552591008,1.35314859451,0.0219736184275,-0.0186374069933,0.014324058567,0.999482180181
1524501378128860124,3066,1524501378128860124,/world,vicon/rs/rs,-0.169588963649,0.346610911118,1.3531722188,0.0219345656195,-0.0183703396335,0.0144690328954,0.999485894118
1524501378138512784,3067,1524501378138512784,/world,vicon/rs/rs,-0.169460009156,0.34661409753,1.35319199194,0.0201395078944,-0.0184083290861,0.0146213452232,0.999520760118
1524501378149586818,3068,1524501378149586818,/world,vicon/rs/rs,-0.16934158382,0.346621314991,1.35320417025,0.0205414630109,-0.0183478968188,0.0148409314168,0.99951045504
1524501378158875051,3069,1524501378158875051,/world,vicon/rs/rs,-0.169226641582,0.346636822021,1.35317383372,0.0187975131686,-0.0186211237629,0.0149692905679,0.999537806983
1524501378168914029,3070,1524501378168914029,/world,vicon/rs/rs,-0.169129462755,0.346570488183,1.3532144099,0.020459143913,-0.0182819436371,0.0152562546351,0.999507098855
1524501378178746094,3071,1524501378178746094,/world,vicon/rs/rs,-0.169053548743,0.346552811018,1.3532866591,0.0204415871701,-0.0181684041323,0.0156193175766,0.999503920715
1524501378188962398,3072,1524501378188962398,/world,vicon/rs/rs,-0.168981815698,0.346568084791,1.35340734214,0.0208258072864,-0.0180194284714,0.0162134901884,0.999489223896
1524501378198950314,3073,1524501378198950314,/world,vicon/rs/rs,-0.168895934758,0.346632966599,1.35349705954,0.0208263093212,-0.0180373400999,0.0167032397881,0.99948082572
1524501378208998391,3074,1524501378208998391,/world,vicon/rs/rs,-0.168807552513,0.346674586328,1.35352353312,0.0202332575454,-0.0182797996086,0.0170043952627,0.999483524005
1524501378218926330,3075,1524501378218926330,/world,vicon/rs/rs,-0.168700843183,0.346632203473,1.35348193997,0.0197535591923,-0.018708753617,0.0176733811446,0.999473576958
1524501378228999958,3076,1524501378228999958,/world,vicon/rs/rs,-0.168649265209,0.346764681287,1.3535102146,0.0205159165572,-0.0186841983307,0.0173613492688,0.999464147157
1524501378238682519,3077,1524501378238682519,/world,vicon/rs/rs,-0.168619586515,0.346788640251,1.35356633785,0.0208487246628,-0.0188582748044,0.0176422569031,0.9994490717
1524501378248893924,3078,1524501378248893924,/world,vicon/rs/rs,-0.168554500282,0.346808338474,1.35369145143,0.0209629434183,-0.0189471344095,0.0180105201065,0.999438433455
1524501378258291527,3079,1524501378258291527,/world,vicon/rs/rs,-0.168476676715,0.346858423464,1.35384686492,0.0210456739827,-0.018995887813,0.0180923717109,0.999434290956
1524501378268653870,3080,1524501378268653870,/world,vicon/rs/rs,-0.168377738412,0.346859225002,1.35402111681,0.0233427089976,-0.0186415927197,0.0183465780843,0.999385317098
1524501378278343062,3081,1524501378278343062,/world,vicon/rs/rs,-0.168280344655,0.346902112707,1.35417645816,0.0227195826994,-0.0188674217396,0.0185379292085,0.999391908182
1524501378288537299,3082,1524501378288537299,/world,vicon/rs/rs,-0.168190666727,0.34689927386,1.35433584405,0.0227888227342,-0.018783795385,0.0191916086387,0.999379567906
1524501378298967885,3083,1524501378298967885,/world,vicon/rs/rs,-0.168116181816,0.346915632618,1.3545044842,0.0228296678242,-0.0187017497643,0.0198768712921,0.999366779921
1524501378308924788,3084,1524501378308924788,/world,vicon/rs/rs,-0.168020079047,0.34697094204,1.35467864425,0.0228910744277,-0.0184152424138,0.0205987227591,0.999356077772
1524501378318976338,3085,1524501378318976338,/world,vicon/rs/rs,-0.167902316323,0.347103835997,1.3548646581,0.0216730581716,-0.0187383669221,0.021291280411,0.9993627137
1524501378328784246,3086,1524501378328784246,/world,vicon/rs/rs,-0.167803514182,0.347198616396,1.35508796529,0.0224118002767,-0.0184503876597,0.0221598687422,0.999332894796
1524501378338941635,3087,1524501378338941635,/world,vicon/rs/rs,-0.16771652174,0.347332611577,1.35526301164,0.0227765946945,-0.0183563635188,0.0225272940039,0.999318163388
1524501378348917798,3088,1524501378348917798,/world,vicon/rs/rs,-0.167640169847,0.34750065227,1.35538806712,0.0218964521114,-0.018629580116,0.0228918087485,0.999324496458
1524501378358777992,3089,1524501378358777992,/world,vicon/rs/rs,-0.167557399583,0.347673054951,1.35547340297,0.0225487070417,-0.0189110213292,0.0231413883219,0.999298956884
1524501378368546987,3090,1524501378368546987,/world,vicon/rs/rs,-0.167479415165,0.347892486454,1.35556223192,0.0223693862399,-0.0190957748697,0.0236145648667,0.999288403949
1524501378380190209,3091,1524501378380190209,/world,vicon/rs/rs,-0.167368961683,0.348168071992,1.355665304,0.0216358414985,-0.0193032727774,0.0238809471013,0.999294238144
1524501378389161322,3092,1524501378389161322,/world,vicon/rs/rs,-0.167238758809,0.348449361117,1.35579159581,0.0204408486912,-0.0194149774459,0.0243806828676,0.999305164931
1524501378398708704,3093,1524501378398708704,/world,vicon/rs/rs,-0.167118947217,0.348751034911,1.35590152414,0.0205283097241,-0.0194984983108,0.0249574081099,0.9992875086
1524501378408714982,3094,1524501378408714982,/world,vicon/rs/rs,-0.167019548284,0.349033667625,1.35597146469,0.019720672889,-0.0194974396821,0.0256913121797,0.99928519522
1524501378419215436,3095,1524501378419215436,/world,vicon/rs/rs,-0.166922180704,0.349393243805,1.35594108837,0.0207466777149,-0.0195435676586,0.0263466150188,0.999246456188
1524501378428880829,3096,1524501378428880829,/world,vicon/rs/rs,-0.1668053716,0.349712042741,1.35593575852,0.020314770206,-0.0194559747734,0.0264939526761,0.999253143917
1524501378438798714,3097,1524501378438798714,/world,vicon/rs/rs,-0.166695865912,0.350005501306,1.35590412739,0.0198303097478,-0.019664814002,0.027055081388,0.999243752283
1524501378448813190,3098,1524501378448813190,/world,vicon/rs/rs,-0.166598631893,0.350297517506,1.35589915506,0.0170562780921,-0.0201147769357,0.0272178896159,0.999281574738
1524501378458812639,3099,1524501378458812639,/world,vicon/rs/rs,-0.166504020601,0.350652843627,1.35592347879,0.0165903215661,-0.0202591293394,0.0273638864229,0.999282515923
1524501378469096817,3100,1524501378469096817,/world,vicon/rs/rs,-0.166405624452,0.350990274948,1.35594312862,0.0176952143362,-0.0199791222517,0.0274831457827,0.999265925948
1524501378478464602,3101,1524501378478464602,/world,vicon/rs/rs,-0.166297721329,0.351377605779,1.35591765358,0.0147335407822,-0.0205356382481,0.0279147020595,0.999290738347
1524501378488719589,3102,1524501378488719589,/world,vicon/rs/rs,-0.166191560344,0.3516715669,1.35586777837,0.0133183179481,-0.0206692779644,0.0284908938652,0.999291585235
1524501378498750431,3103,1524501378498750431,/world,vicon/rs/rs,-0.1661024629,0.352012501435,1.35582607275,0.0128299252536,-0.0208743236451,0.0289883967915,0.999279404612
1524501378508803501,3104,1524501378508803501,/world,vicon/rs/rs,-0.166082087577,0.352486746853,1.35577806497,0.011175784741,-0.020949144901,0.0286786959666,0.999306643409
1524501378518833182,3105,1524501378518833182,/world,vicon/rs/rs,-0.165875347199,0.353019716673,1.35587029158,0.00928849304612,-0.021556253676,0.0291390428769,0.999299738819
1524501378528741855,3106,1524501378528741855,/world,vicon/rs/rs,-0.165814302084,0.35358588052,1.35587043394,0.0103836299993,-0.0214583265992,0.0290796223954,0.999292797937
1524501378540160338,3107,1524501378540160338,/world,vicon/rs/rs,-0.165740084772,0.354196794613,1.35577910627,0.00902559878144,-0.0220382442771,0.0286686636027,0.999305239696
1524501378548859542,3108,1524501378548859542,/world,vicon/rs/rs,-0.165786098632,0.354454278111,1.35588301101,0.00998944936782,-0.0209258064646,0.0308828468151,0.999254007396
1524501378558823859,3109,1524501378558823859,/world,vicon/rs/rs,-0.165756634803,0.355124108488,1.3558548564,0.00747846934302,-0.0213193040035,0.030713211571,0.999272864841
1524501378568719689,3110,1524501378568719689,/world,vicon/rs/rs,-0.165787753977,0.355654809868,1.35593321652,0.00545735590789,-0.0213031384711,0.0309958892806,0.999277563245
1524501378578848835,3111,1524501378578848835,/world,vicon/rs/rs,-0.165838657316,0.356261772281,1.35602844302,0.00524916140332,-0.0213304929755,0.0313885333903,0.999265838676
1524501378588649885,3112,1524501378588649885,/world,vicon/rs/rs,-0.165930507972,0.35679107764,1.35610791182,0.0147298296239,-0.0203519152429,0.0313936628742,0.999191307807
1524501378598884781,3113,1524501378598884781,/world,vicon/rs/rs,-0.165934085837,0.357099275238,1.35665374755,0.00833222161152,-0.019523037847,0.0332375891923,0.999222041261
1524501378608807569,3114,1524501378608807569,/world,vicon/rs/rs,-0.165971308477,0.35729983075,1.35657576709,0.0107907914713,-0.0201574346814,0.0349548111513,0.999127318125
1524501378620161438,3115,1524501378620161438,/world,vicon/rs/rs,-0.166090304147,0.358113601007,1.35691677343,0.0131770834466,-0.0188794953747,0.033958807357,0.999158009791
1524501378629068965,3116,1524501378629068965,/world,vicon/rs/rs,-0.166251465722,0.358921268986,1.35698195873,0.01013873138,-0.0197752337401,0.0339269882592,0.999177214374
1524501378638791354,3117,1524501378638791354,/world,vicon/rs/rs,-0.166411678562,0.359628115703,1.35713904193,0.00648288877931,-0.0202615792293,0.0333998259965,0.99921563848
1524501378648838196,3118,1524501378648838196,/world,vicon/rs/rs,-0.166650538491,0.360338088857,1.35724052603,0.0160926062693,-0.0190182842684,0.033365819418,0.999132651344
1524501378658788907,3119,1524501378658788907,/world,vicon/rs/rs,-0.166792874708,0.361103978025,1.35750685978,0.012122284817,-0.0190827153524,0.0331123081597,0.99919591434
1524501378668838089,3120,1524501378668838089,/world,vicon/rs/rs,-0.16697641345,0.361875288502,1.35759681438,0.0140865265515,-0.018864932532,0.0331009209822,0.999174665972
1524501378678865766,3121,1524501378678865766,/world,vicon/rs/rs,-0.167205958089,0.362511269059,1.35762124172,0.016582213732,-0.0185562439342,0.0332327599422,0.999137768111
1524501378688695460,3122,1524501378688695460,/world,vicon/rs/rs,-0.167370828832,0.363511140818,1.35746342483,0.0141511758021,-0.0205982920168,0.0310403589096,0.999205659866
1524501378700122474,3123,1524501378700122474,/world,vicon/rs/rs,-0.167557321386,0.364227958306,1.35778191717,0.0107545148315,-0.0202758710772,0.0312412154272,0.999248325453
1524501378708998187,3124,1524501378708998187,/world,vicon/rs/rs,-0.167716522351,0.364816835705,1.35817255739,0.0140079572052,-0.0183856613847,0.0326284897813,0.999200243317
1524501378718654703,3125,1524501378718654703,/world,vicon/rs/rs,-0.167998416145,0.366133777851,1.35783706904,0.0124230565002,-0.0201806400347,0.0306522738374,0.999249141878
1524501378728811522,3126,1524501378728811522,/world,vicon/rs/rs,-0.168320720138,0.367031811467,1.35780527788,0.0164671474411,-0.0196712136292,0.0310172939053,0.999189573549
1524501378738707853,3127,1524501378738707853,/world,vicon/rs/rs,-0.168532582452,0.368018823862,1.35781423899,0.010870723942,-0.0201576606139,0.0299861889492,0.999287908739
1524501378749893091,3128,1524501378749893091,/world,vicon/rs/rs,-0.168826983955,0.368966020875,1.357797642,0.0100569074821,-0.020165469598,0.0299602748513,0.99929705012
1524501378758550434,3129,1524501378758550434,/world,vicon/rs/rs,-0.169204026253,0.369978373618,1.35771085765,0.0173666027315,-0.0192951412703,0.0298586741153,0.99921697254
1524501378768804596,3130,1524501378768804596,/world,vicon/rs/rs,-0.169586768926,0.370756493831,1.3578973857,0.0170668857825,-0.0185576711297,0.0313909186884,0.999189143494
1524501378778734803,3131,1524501378778734803,/world,vicon/rs/rs,-0.169822127432,0.371558897919,1.35827164245,0.0144375079455,-0.0173630650456,0.0319616446409,0.999233974407
1524501378789341958,3132,1524501378789341958,/world,vicon/rs/rs,-0.170236128189,0.372613766428,1.35827753136,0.0144018236784,-0.0171751303483,0.031726157969,0.999245241806
1524501378798725057,3133,1524501378798725057,/world,vicon/rs/rs,-0.170546983028,0.373795064126,1.35814119744,0.0115183040928,-0.0181223480153,0.0313505090517,0.999277766567
1524501378809013230,3134,1524501378809013230,/world,vicon/rs/rs,-0.171087794067,0.375065179639,1.35808626325,0.0148445607898,-0.0177142677666,0.03091713528,0.99925470951
1524501378818843832,3135,1524501378818843832,/world,vicon/rs/rs,-0.171577908867,0.376188134555,1.35799003832,0.012189584431,-0.018285679138,0.0308507132463,0.999282383244
1524501378828780488,3136,1524501378828780488,/world,vicon/rs/rs,-0.172117240856,0.37745464327,1.35791483338,0.0102458820085,-0.018778420235,0.0306200240702,0.99930215999
1524501378839089991,3137,1524501378839089991,/world,vicon/rs/rs,-0.172660725751,0.37861097045,1.35793831603,0.0117778501526,-0.0185422501982,0.0306443369857,0.999288943106
1524501378848787562,3138,1524501378848787562,/world,vicon/rs/rs,-0.173194204951,0.379788850958,1.35797350527,0.012336383615,-0.0184698972089,0.030629902397,0.99928398647
1524501378860015372,3139,1524501378860015372,/world,vicon/rs/rs,-0.17375384307,0.380971033057,1.35795814932,0.0118443015385,-0.0186464857039,0.0307131234777,0.999284106317
1524501378868773532,3140,1524501378868773532,/world,vicon/rs/rs,-0.174380170792,0.382162199602,1.35794408135,0.0116950567875,-0.0188919992925,0.0308544539287,0.999276898904
1524501378878365592,3141,1524501378878365592,/world,vicon/rs/rs,-0.175092271196,0.383634583985,1.35768455065,0.0113667242334,-0.0208065136615,0.0301452374883,0.99926430499
1524501378888762695,3142,1524501378888762695,/world,vicon/rs/rs,-0.175767897122,0.384923776216,1.35767303653,0.010994132098,-0.0213253304415,0.0304252480433,0.999249049848
1524501378898887027,3143,1524501378898887027,/world,vicon/rs/rs,-0.176529517576,0.386109436307,1.35772649259,0.0163204890842,-0.0207062366582,0.031207187542,0.999165153939
1524501378909106303,3144,1524501378909106303,/world,vicon/rs/rs,-0.17706508509,0.387220742226,1.35802426393,0.0118874353703,-0.0206637574709,0.0328170802948,0.999177029984
1524501378918809160,3145,1524501378918809160,/world,vicon/rs/rs,-0.177707107537,0.389134502473,1.35782159426,0.0114078397172,-0.0223117116328,0.0304099614989,0.999223339879
1524501378928748184,3146,1524501378928748184,/world,vicon/rs/rs,-0.178289101197,0.390523247969,1.35791166862,0.0108204042323,-0.0219690922251,0.0306490636482,0.999230160041
1524501378938862172,3147,1524501378938862172,/world,vicon/rs/rs,-0.178839264128,0.391970692209,1.35790170335,0.00780246438725,-0.0228534471453,0.0301579049274,0.999253392425
1524501378949196341,3148,1524501378949196341,/world,vicon/rs/rs,-0.179475437442,0.393506647219,1.35792728091,0.016015372628,-0.0223709453704,0.0301990156572,0.999165185591
1524501378958665773,3149,1524501378958665773,/world,vicon/rs/rs,-0.180134595235,0.394907386381,1.35814462622,0.00668633305136,-0.0227754186051,0.0304900934823,0.999253184862
1524501378968597779,3150,1524501378968597779,/world,vicon/rs/rs,-0.180683773422,0.396718839813,1.35811176796,0.0110646459344,-0.0235956492601,0.029794937141,0.999216233188
1524501378978627255,3151,1524501378978627255,/world,vicon/rs/rs,-0.181333024188,0.398306934518,1.35816233833,0.00900814721965,-0.024245535135,0.0291840996898,0.99923935853
1524501378990278098,3152,1524501378990278098,/world,vicon/rs/rs,-0.181949537807,0.399921935716,1.35826833373,0.0101696485265,-0.0243233714462,0.0288459390864,0.999236140083
1524501378998749569,3153,1524501378998749569,/world,vicon/rs/rs,-0.182691731787,0.401404347708,1.35836106958,0.0143615277007,-0.0235299786772,0.0292558001213,0.999191765771
1524501379008735204,3154,1524501379008735204,/world,vicon/rs/rs,-0.183242597963,0.403223752044,1.35838926425,0.00827645700295,-0.0246992292514,0.028195761783,0.999262952056
1524501379018592519,3155,1524501379018592519,/world,vicon/rs/rs,-0.183915912527,0.404946750447,1.35840195976,0.0146612070453,-0.024212864641,0.0281153688119,0.999203839179
1524501379029501273,3156,1524501379029501273,/world,vicon/rs/rs,-0.18451223133,0.406688425061,1.35857081403,0.00335083628693,-0.02466176975,0.0259318445622,0.999353845465
1524501379038799908,3157,1524501379038799908,/world,vicon/rs/rs,-0.185230982043,0.40836592775,1.3587369448,0.00567815514194,-0.0243635417423,0.0263490797336,0.999339733216
1524501379048910404,3158,1524501379048910404,/world,vicon/rs/rs,-0.185928848076,0.410060643798,1.35893191943,0.00888226745546,-0.024058383252,0.0261129363745,0.999329982575
1524501379058707539,3159,1524501379058707539,/world,vicon/rs/rs,-0.18662414927,0.411731157555,1.3589241838,0.0128639104259,-0.0253496057754,0.0277036140099,0.999211902985
1524501379068673208,3160,1524501379068673208,/world,vicon/rs/rs,-0.187348403763,0.413702260434,1.35904811478,0.0110396091985,-0.0252582288947,0.0259421161104,0.999283320942
1524501379078821162,3161,1524501379078821162,/world,vicon/rs/rs,-0.188025041602,0.415599312816,1.35911630814,0.00880303298931,-0.0260236391138,0.0259858641035,0.999284750051
1524501379088669731,3162,1524501379088669731,/world,vicon/rs/rs,-0.188741312481,0.417473325814,1.35933149186,0.0101081612436,-0.0254862206641,0.0260218747747,0.999285314445
1524501379098871948,3163,1524501379098871948,/world,vicon/rs/rs,-0.189404574442,0.419629527756,1.35937053812,0.0102874839614,-0.0258739138437,0.0250471804603,0.999298427402
1524501379109212776,3164,1524501379109212776,/world,vicon/rs/rs,-0.190058267603,0.421691853259,1.35941797885,0.0118297789234,-0.0261600837985,0.0251127926942,0.999272262194
1524501379118789004,3165,1524501379118789004,/world,vicon/rs/rs,-0.190747164125,0.423824532338,1.35966388571,0.0102836890396,-0.0252738165332,0.024225958583,0.999334069703
1524501379128752074,3166,1524501379128752074,/world,vicon/rs/rs,-0.191371266942,0.426162382671,1.35961975489,0.0124514368652,-0.0257280650212,0.0233928010733,0.999317669837
1524501379138780614,3167,1524501379138780614,/world,vicon/rs/rs,-0.192057086594,0.428316100353,1.35974130912,0.0119087499166,-0.025648096264,0.0234608421279,0.999324744875
1524501379148626735,3168,1524501379148626735,/world,vicon/rs/rs,-0.192752975148,0.430522466918,1.35993546423,0.0102236665485,-0.0249830412825,0.0231711086351,0.99936701167
1524501379158659077,3169,1524501379158659077,/world,vicon/rs/rs,-0.193402141369,0.432918278201,1.35995543585,0.01245898573,-0.0255191654792,0.0225272083516,0.999342819433
1524501379168855982,3170,1524501379168855982,/world,vicon/rs/rs,-0.19415853105,0.435347860304,1.36017887733,0.0106110685149,-0.0252566545496,0.0215292707834,0.999392814225
1524501379178804684,3171,1524501379178804684,/world,vicon/rs/rs,-0.19492999783,0.437751634611,1.36039930248,0.0113847531119,-0.0248175584296,0.0212118948054,0.999402087105
1524501379189534514,3172,1524501379189534514,/world,vicon/rs/rs,-0.19570165275,0.440059222971,1.36056422803,0.007415089769,-0.0244500346804,0.019197426704,0.999489205072
1524501379198859200,3173,1524501379198859200,/world,vicon/rs/rs,-0.196550084513,0.442467040564,1.36074495156,0.00715924178186,-0.0241788803521,0.0180224958334,0.999519542903
1524501379208786383,3174,1524501379208786383,/world,vicon/rs/rs,-0.197518067614,0.444598976067,1.36112850998,0.0143633018553,-0.0238686646459,0.0196003415601,0.999419736156
1524501379218845643,3175,1524501379218845643,/world,vicon/rs/rs,-0.198535407216,0.446762266139,1.36146412858,0.0137100139359,-0.0233336948159,0.0193284722903,0.999446839188
1524501379228608132,3176,1524501379228608132,/world,vicon/rs/rs,-0.199592312558,0.449279023024,1.3616017477,0.0136874681419,-0.0242032205346,0.018087298311,0.999449702072
1524501379238563801,3177,1524501379238563801,/world,vicon/rs/rs,-0.200653118133,0.451631987633,1.36194814289,0.011549700912,-0.0233375645558,0.0161799489858,0.999529975409
1524501379248379994,3178,1524501379248379994,/world,vicon/rs/rs,-0.201667339549,0.453952253739,1.36242380388,0.010243187208,-0.022702198554,0.0167613596575,0.999549270481
1524501379258685344,3179,1524501379258685344,/world,vicon/rs/rs,-0.202901519607,0.456625529195,1.36267918291,0.0148493122274,-0.0230675614758,0.0159413281765,0.99949650304
1524501379269226108,3180,1524501379269226108,/world,vicon/rs/rs,-0.204001978073,0.458964325121,1.36297381132,0.0185040892865,-0.0226163703615,0.0157723904456,0.999448513017
1524501379280302918,3181,1524501379280302918,/world,vicon/rs/rs,-0.205134777892,0.461246850958,1.36334970047,0.0161224387639,-0.0223194249938,0.0153101213685,0.999503632019
1524501379288426002,3182,1524501379288426002,/world,vicon/rs/rs,-0.206295514764,0.463634597509,1.36373876288,0.01573025326,-0.0215802087393,0.0148032459355,0.999533750122
1524501379298597675,3183,1524501379298597675,/world,vicon/rs/rs,-0.207412657614,0.46606085909,1.36411450221,0.0210794216061,-0.0205808114794,0.0137816800545,0.999470936785
1524501379308891398,3184,1524501379308891398,/world,vicon/rs/rs,-0.208569578612,0.468504779807,1.36434339348,0.0113905524271,-0.0205918291836,0.0114593994857,0.999657398337
1524501379318790908,3185,1524501379318790908,/world,vicon/rs/rs,-0.209736425447,0.470926674387,1.3645931923,0.0105177992626,-0.0207386781268,0.0109158372702,0.999670009366
1524501379328827672,3186,1524501379328827672,/world,vicon/rs/rs,-0.211102472826,0.47312735779,1.365219308,0.0201217214503,-0.0183275356983,0.0125714882502,0.999550486691
1524501379338895085,3187,1524501379338895085,/world,vicon/rs/rs,-0.212307131117,0.47564688719,1.3654063417,0.0153289602526,-0.0185121676302,0.0103650049756,0.999657385957
1524501379349195938,3188,1524501379349195938,/world,vicon/rs/rs,-0.213625909375,0.477879402826,1.36578488978,0.0176338358404,-0.0177384695755,0.0106301785716,0.9996306287
1524501379358891887,3189,1524501379358891887,/world,vicon/rs/rs,-0.214948065403,0.4800931335,1.36612903333,0.0176631325292,-0.0173204084165,0.0101613531628,0.999642318084
1524501379368847405,3190,1524501379368847405,/world,vicon/rs/rs,-0.216283972202,0.482301037806,1.36647345099,0.0198429156353,-0.0171159680641,0.00978393591489,0.999608711914
1524501379378768333,3191,1524501379378768333,/world,vicon/rs/rs,-0.217642418192,0.484447625676,1.36669787959,0.0173356762997,-0.0175388932813,0.00977658509874,0.999648078042
1524501379388901182,3192,1524501379388901182,/world,vicon/rs/rs,-0.219002799246,0.486681506878,1.36701558917,0.0171650231438,-0.0172936225141,0.00855557241168,0.999666491777
1524501379398824760,3193,1524501379398824760,/world,vicon/rs/rs,-0.220400767932,0.488697915687,1.36740903423,0.0150377527241,-0.0173535918126,0.00853944244219,0.999699853339
1524501379408815436,3194,1524501379408815436,/world,vicon/rs/rs,-0.221714428148,0.490953561053,1.36773089237,0.0132873077598,-0.0172566460795,0.00721993879332,0.999736729395
1524501379418830789,3195,1524501379418830789,/world,vicon/rs/rs,-0.22303972178,0.492817304417,1.36826484202,0.0179818403281,-0.0159168177338,0.00700890485006,0.999687042821
1524501379429035440,3196,1524501379429035440,/world,vicon/rs/rs,-0.224316561347,0.494721483089,1.36867661095,0.0178349874986,-0.0155809601497,0.00690452553407,0.999695690912
1524501379440048937,3197,1524501379440048937,/world,vicon/rs/rs,-0.22541985251,0.496574657657,1.36892000437,0.018912580056,-0.0157740317598,0.00592211981266,0.999679159898
1524501379448784225,3198,1524501379448784225,/world,vicon/rs/rs,-0.226637712136,0.4984967341,1.36930295087,0.0185467515928,-0.0158205412435,0.00678753393637,0.99967977766
1524501379458776070,3199,1524501379458776070,/world,vicon/rs/rs,-0.227695611773,0.500630399653,1.3694137837,0.0188872376347,-0.0161884959122,0.00485345367485,0.999678772828
1524501379469076031,3200,1524501379469076031,/world,vicon/rs/rs,-0.228790403656,0.502652179917,1.36974435309,0.0204550601522,-0.0156550501264,0.00485421430204,0.999656414236
1524501379478830237,3201,1524501379478830237,/world,vicon/rs/rs,-0.229770835657,0.50484390758,1.36988527458,0.0194676755008,-0.0154968667627,0.00427778868002,0.99968122782
1524501379488651355,3202,1524501379488651355,/world,vicon/rs/rs,-0.230696177952,0.50700574696,1.37005701454,0.0160795384008,-0.0152508563059,0.00352074126586,0.999748200402
1524501379498805597,3203,1524501379498805597,/world,vicon/rs/rs,-0.231553762758,0.50905605806,1.37026872924,0.0132084746046,-0.0136151335928,0.00142342845576,0.999819052723
1524501379509187447,3204,1524501379509187447,/world,vicon/rs/rs,-0.232391578359,0.511241657746,1.3703229778,0.016282701725,-0.0143236174838,0.00337404198108,0.999759132715
1524501379518866171,3205,1524501379518866171,/world,vicon/rs/rs,-0.233242339665,0.513374096601,1.37034075577,0.015644951629,-0.013566069299,0.00258427139975,0.999782235686
1524501379528760709,3206,1524501379528760709,/world,vicon/rs/rs,-0.234095610203,0.515531390694,1.37032846995,0.015791869917,-0.013588923206,0.00264551142483,0.99977945532
1524501379538898371,3207,1524501379538898371,/world,vicon/rs/rs,-0.235101445995,0.517694690722,1.37023507966,0.0137001425884,-0.0136122560369,0.00273322837523,0.999809752924
1524501379548899680,3208,1524501379548899680,/world,vicon/rs/rs,-0.23594948848,0.519988970719,1.37007890423,0.0148167317436,-0.0144030163777,0.00244253904474,0.999783502356
1524501379558859211,3209,1524501379558859211,/world,vicon/rs/rs,-0.236917310032,0.522373406066,1.36980097683,0.0104659966943,-0.0142051950185,0.000427011605595,0.999844234373
1524501379568618128,3210,1524501379568618128,/world,vicon/rs/rs,-0.237715574413,0.5241048617,1.37008336917,0.013895368557,-0.0127411425197,0.0032135887253,0.999817110709
1524501379578825723,3211,1524501379578825723,/world,vicon/rs/rs,-0.238677286512,0.526902574706,1.36947953886,0.0134590034663,-0.0157263192198,0.00136795874856,0.999784810246
1524501379589397874,3212,1524501379589397874,/world,vicon/rs/rs,-0.239446206334,0.528566874552,1.36954424426,0.0124522107434,-0.0153159119787,0.00442593898851,0.999795367239
1524501379599901338,3213,1524501379599901338,/world,vicon/rs/rs,-0.24017533854,0.530898802853,1.36931045013,0.0122894190789,-0.0168776102316,0.00501795368681,0.999769441718
1524501379608347988,3214,1524501379608347988,/world,vicon/rs/rs,-0.240995122179,0.533862909141,1.36928823641,0.0131651164418,-0.0173792239605,0.000871680596844,0.999761912886
1524501379618937251,3215,1524501379618937251,/world,vicon/rs/rs,-0.241668377463,0.536051220399,1.36948845688,0.0139372514559,-0.0168215516058,0.00202227846376,0.999759320443
1524501379628797258,3216,1524501379628797258,/world,vicon/rs/rs,-0.242189624568,0.538513414212,1.36960058001,0.0126631659877,-0.0172900237199,0.00121687782279,0.999769582712
1524501379638792305,3217,1524501379638792305,/world,vicon/rs/rs,-0.242708588995,0.540652986049,1.36967493216,0.0138077138287,-0.0172765093888,0.00188042406558,0.999753636286
1524501379648864908,3218,1524501379648864908,/world,vicon/rs/rs,-0.243145874267,0.542779699294,1.37029853256,0.017417004856,-0.0150008490718,0.00315553110229,0.999730796311
1524501379658802878,3219,1524501379658802878,/world,vicon/rs/rs,-0.24354838988,0.545289754164,1.37042193041,0.0165582764659,-0.0154447198196,0.00273960408421,0.999739855502
1524501379669371534,3220,1524501379669371534,/world,vicon/rs/rs,-0.243820156952,0.54774367593,1.37037719194,0.0166528409575,-0.0165382164188,0.00243144501491,0.999721590424
1524501379679097895,3221,1524501379679097895,/world,vicon/rs/rs,-0.244027625274,0.55033674653,1.37101878057,0.0219200090154,-0.0141474962145,0.00189089421992,0.999657834499
1524501379688833799,3222,1524501379688833799,/world,vicon/rs/rs,-0.244292923099,0.553168378565,1.37124680424,0.0190499306991,-0.0141801637203,0.000745376775816,0.999717693907
1524501379699054636,3223,1524501379699054636,/world,vicon/rs/rs,-0.244444949506,0.555844161425,1.37141576212,0.0186010647862,-0.0145063001734,0.000923771350666,0.999721318314
1524501379708883972,3224,1524501379708883972,/world,vicon/rs/rs,-0.244509717868,0.558688017771,1.37150377177,0.0176183651146,-0.0141408881683,-0.000283273815537,0.999744741546
1524501379720256609,3225,1524501379720256609,/world,vicon/rs/rs,-0.244616489886,0.561629450582,1.37162209317,0.015072806297,-0.0143135831573,-0.000853763511792,0.999783578048
1524501379728629876,3226,1524501379728629876,/world,vicon/rs/rs,-0.244686683511,0.564505368845,1.37175906049,0.0156459459257,-0.0142789680199,-0.00113244561533,0.999774991193
1524501379738874983,3227,1524501379738874983,/world,vicon/rs/rs,-0.244849005104,0.567357310851,1.37198753391,0.0176458520219,-0.0134960333395,-0.000735953425453,0.999752939162
1524501379749218658,3228,1524501379749218658,/world,vicon/rs/rs,-0.244985012938,0.570653644859,1.37172045257,0.0126301536474,-0.0153941322701,-0.003195481071,0.999796623725
1524501379761688080,3229,1524501379761688080,/world,vicon/rs/rs,-0.245021964576,0.573710713618,1.37173574887,0.0103194260563,-0.0153959334512,-0.00476490215909,0.999816868425
1524501379768819977,3230,1524501379768819977,/world,vicon/rs/rs,-0.244997306502,0.57647641517,1.37202681924,0.0169488192648,-0.0145151921213,-0.00217701831268,0.999748622062
1524501379780657122,3231,1524501379780657122,/world,vicon/rs/rs,-0.245022820952,0.579627017525,1.37202300265,0.0157011916625,-0.0139415382231,-0.00303782033193,0.999774913538
1524501379788820659,3232,1524501379788820659,/world,vicon/rs/rs,-0.244948885523,0.582621637499,1.37217729814,0.0193772356038,-0.0132045292143,-0.00261189862242,0.999721631823
1524501379798629776,3233,1524501379798629776,/world,vicon/rs/rs,-0.24487093149,0.585867594616,1.37208821391,0.0151880802836,-0.0135397578694,-0.00294783095354,0.999788631395
1524501379808849109,3234,1524501379808849109,/world,vicon/rs/rs,-0.244807513543,0.589438940492,1.37194279726,0.0168467622609,-0.014458339787,-0.00449296699092,0.99974344522
1524501379818700255,3235,1524501379818700255,/world,vicon/rs/rs,-0.244758122855,0.592686555883,1.3718298538,0.0160797514942,-0.0137460892366,-0.00465352782898,0.999765388129
1524501379829096807,3236,1524501379829096807,/world,vicon/rs/rs,-0.244609978984,0.596139229652,1.37163624713,0.00952459799821,-0.0137807130918,-0.00569810632368,0.999843440527
1524501379838937215,3237,1524501379838937215,/world,vicon/rs/rs,-0.244516514682,0.599586017597,1.37149431404,0.0128575310869,-0.0129159642554,-0.0060807403168,0.999815426146
1524501379848888938,3238,1524501379848888938,/world,vicon/rs/rs,-0.24442649592,0.603069339711,1.37123489567,0.0124989045606,-0.0135455540287,-0.00591215092908,0.999812653362
1524501379858614261,3239,1524501379858614261,/world,vicon/rs/rs,-0.244319773579,0.606480195367,1.37104392675,0.0175460420774,-0.0145866314924,-0.00421895086104,0.999730747273
1524501379868874503,3240,1524501379868874503,/world,vicon/rs/rs,-0.244250164634,0.610171232874,1.37068436758,0.0196351637754,-0.014517588581,-0.00429592406702,0.999692575246
1524501379878381679,3241,1524501379878381679,/world,vicon/rs/rs,-0.244055899225,0.613713418534,1.37038684204,0.0201926261709,-0.015594644272,-0.00373670727109,0.999667495689
1524501379888880999,3242,1524501379888880999,/world,vicon/rs/rs,-0.243958029785,0.617367850948,1.37002287276,0.0173428715497,-0.0152556685081,-0.00339409577578,0.999727447607
1524501379898450952,3243,1524501379898450952,/world,vicon/rs/rs,-0.243774072737,0.621108935556,1.3696216035,0.0129981561666,-0.0153942392823,-0.00390876557066,0.99978937126
1524501379909323668,3244,1524501379909323668,/world,vicon/rs/rs,-0.243502494602,0.624552791727,1.36933541108,0.011079579899,-0.0141176826585,-0.00280179815166,0.999835028329
1524501379918620499,3245,1524501379918620499,/world,vicon/rs/rs,-0.243258099964,0.628305490928,1.3690922494,0.0152490053524,-0.013670331642,-0.00245120614868,0.999787268101
1524501379928908719,3246,1524501379928908719,/world,vicon/rs/rs,-0.242903454434,0.632015370295,1.36875097032,0.0201537648813,-0.0137489313539,-0.00177623511402,0.99970077405
1524501379938859604,3247,1524501379938859604,/world,vicon/rs/rs,-0.242629539635,0.635873545203,1.3682944502,0.0162961018504,-0.0139997719571,-0.00206421589923,0.999767064102
1524501379948868985,3248,1524501379948868985,/world,vicon/rs/rs,-0.242315844122,0.639686274674,1.36784954329,0.017319709552,-0.0137314894701,-0.00129104822411,0.999754873483
1524501379958616875,3249,1524501379958616875,/world,vicon/rs/rs,-0.241975761752,0.643466325393,1.36757073753,0.0157258236054,-0.0130958712122,3.84991149666e-05,0.999790575644
1524501379968857495,3250,1524501379968857495,/world,vicon/rs/rs,-0.241665585916,0.647594837686,1.36707988793,0.0155355694447,-0.0131323384151,-0.000649223429056,0.999792861686
1524501379978444211,3251,1524501379978444211,/world,vicon/rs/rs,-0.241269344156,0.651455454696,1.36656270376,0.0160720114648,-0.013307469932,8.68597437266e-05,0.999782273371
1524501379989268439,3252,1524501379989268439,/world,vicon/rs/rs,-0.240845833572,0.655810249392,1.36565644881,0.0124042337268,-0.0154403879372,-0.00180418889912,0.999802217595
1524501379998813228,3253,1524501379998813228,/world,vicon/rs/rs,-0.240433840352,0.659780823683,1.3651935961,0.0146440632087,-0.0153756362675,-0.000506089228186,0.999774417104
1524501380008891259,3254,1524501380008891259,/world,vicon/rs/rs,-0.239904401607,0.663801493298,1.36459109906,0.0141264670978,-0.0159428498289,-1.73956348888e-05,0.999773108342
1524501380018794089,3255,1524501380018794089,/world,vicon/rs/rs,-0.239269441229,0.667775028511,1.36435337097,0.0195931496302,-0.0146003445898,0.00120322473324,0.999700700548
1524501380028822056,3256,1524501380028822056,/world,vicon/rs/rs,-0.238640749811,0.672009180612,1.36378688619,0.0190542615658,-0.0142530309744,0.000619293005601,0.99971666121
1524501380038626125,3257,1524501380038626125,/world,vicon/rs/rs,-0.237894931774,0.676187955558,1.36330318285,0.0210753939643,-0.0141189882564,0.000860969180764,0.999677818435
1524501380048880495,3258,1524501380048880495,/world,vicon/rs/rs,-0.237113807315,0.680668249564,1.36279728731,0.0192758791967,-0.0146673597153,0.000601114422757,0.999706430759
1524501380058791969,3259,1524501380058791969,/world,vicon/rs/rs,-0.236401537269,0.684872778509,1.36227180695,0.0210440254372,-0.0146100408006,0.0019429337853,0.999669905874
1524501380069248597,3260,1524501380069248597,/world,vicon/rs/rs,-0.235625316686,0.689171360901,1.36181524714,0.0233283139309,-0.0145231846679,0.0025242569051,0.999619174988
1524501380078788256,3261,1524501380078788256,/world,vicon/rs/rs,-0.234920707902,0.693462112689,1.36131647759,0.0175465328815,-0.0136939667985,0.0018127724971,0.999750623062
1524501380088648313,3262,1524501380088648313,/world,vicon/rs/rs,-0.233954029768,0.697760233531,1.36090524618,0.0312126764979,-0.0148447395888,0.00412781940937,0.999393998201
1524501380098647530,3263,1524501380098647530,/world,vicon/rs/rs,-0.233078785931,0.702203413222,1.36041669547,0.0307734484929,-0.0144315648191,0.00391823380113,0.999414514728
1524501380108872584,3264,1524501380108872584,/world,vicon/rs/rs,-0.23207190361,0.706700601487,1.36001670445,0.0282133440437,-0.0141928002102,0.00351953533511,0.999494964725
1524501380133195372,3265,1524501380133195372,/world,vicon/rs/rs,-0.230119235309,0.716212522045,1.35925555054,0.0296742604774,-0.0140400286671,0.0019597200075,0.999459091388
1524501380138888002,3266,1524501380138888002,/world,vicon/rs/rs,-0.229036125946,0.72086998821,1.35898728597,0.0283061280465,-0.0121564989544,-0.0015906516167,0.999524113004
1524501380149230155,3267,1524501380149230155,/world,vicon/rs/rs,-0.228051105699,0.725250305693,1.35883181165,0.0282613661841,-0.0114715271877,0.00011425851601,0.999534734859
1524501380162626555,3268,1524501380162626555,/world,vicon/rs/rs,-0.227133615348,0.729926391579,1.35847292597,0.0280206469198,-0.0113556936151,-0.000912947817383,0.99954242436
1524501380168712264,3269,1524501380168712264,/world,vicon/rs/rs,-0.226131437102,0.734465828639,1.35830146964,0.0252147768642,-0.0134673217016,0.0010089139976,0.999590830473
1524501380178791351,3270,1524501380178791351,/world,vicon/rs/rs,-0.225373221728,0.738908500467,1.35813941428,0.0196732299827,-0.0129591553056,0.000358130992976,0.999722409501
1524501380188938717,3271,1524501380188938717,/world,vicon/rs/rs,-0.224549661301,0.743368889661,1.35792576746,0.0252173950998,-0.0143429694197,0.00196584921464,0.999577159428
1524501380199073016,3272,1524501380199073016,/world,vicon/rs/rs,-0.223722101703,0.747913404604,1.3579525687,0.0227201199382,-0.0147683963844,0.00182830595054,0.999631105916
1524501380208847957,3273,1524501380208847957,/world,vicon/rs/rs,-0.22298595294,0.75241953426,1.35794833901,0.0140744335532,-0.0140274544261,0.000649026036227,0.999802340269
1524501380218806611,3274,1524501380218806611,/world,vicon/rs/rs,-0.222116357383,0.756759774811,1.35814120947,0.0181426060585,-0.0139096248491,0.0016155855485,0.999737344539
1524501380229109344,3275,1524501380229109344,/world,vicon/rs/rs,-0.221247266846,0.761231580101,1.35821946734,0.012596711493,-0.0139014708172,0.00202472628625,0.999821970379
1524501380238519860,3276,1524501380238519860,/world,vicon/rs/rs,-0.220309095255,0.765810598418,1.35828563586,0.0154412429978,-0.0142936688701,0.00280584478781,0.999774667753
1524501380248539398,3277,1524501380248539398,/world,vicon/rs/rs,-0.219170835819,0.769693959598,1.35838808836,0.0212968891286,-0.0153394447189,0.00773649459147,0.999625575203
1524501380258394092,3278,1524501380258394092,/world,vicon/rs/rs,-0.218137905001,0.774784902979,1.35884106949,0.0232146274483,-0.0135356675333,0.00520050094558,0.999625340599
1524501380268515815,3279,1524501380268515815,/world,vicon/rs/rs,-0.217076203387,0.779569807112,1.35893959746,0.0178573263598,-0.0141719350231,0.00525519190021,0.999726290097
1524501380278475900,3280,1524501380278475900,/world,vicon/rs/rs,-0.216013531123,0.784566008271,1.35890676861,0.0161012794038,-0.0152940088563,0.00378042288082,0.999746243052
1524501380288588168,3281,1524501380288588168,/world,vicon/rs/rs,-0.214755942221,0.789225135239,1.3589870196,0.0163228589553,-0.0168522838293,0.00518096430603,0.999711319539
1524501380298603809,3282,1524501380298603809,/world,vicon/rs/rs,-0.213453901824,0.793864972628,1.35954240996,0.018208165855,-0.015171947585,0.00684547005528,0.99969566081
1524501380309074161,3283,1524501380309074161,/world,vicon/rs/rs,-0.21243785568,0.798494818,1.35987543434,0.0197868378157,-0.0146504479838,0.00710288811238,0.999671643293
1524501380318633897,3284,1524501380318633897,/world,vicon/rs/rs,-0.211250269181,0.803381814086,1.36014968869,0.0180311207778,-0.0158393124889,0.00727225552472,0.999685505128
1524501380328544684,3285,1524501380328544684,/world,vicon/rs/rs,-0.21003038833,0.808208981511,1.36057224251,0.016692907269,-0.0167638357928,0.00803324602215,0.999687845087
1524501380338799390,3286,1524501380338799390,/world,vicon/rs/rs,-0.208999728451,0.812888434916,1.36093672162,0.0188311081813,-0.0168507882344,0.00870300460919,0.999642785204
1524501380348805325,3287,1524501380348805325,/world,vicon/rs/rs,-0.207984749147,0.818119650849,1.36085762578,0.0173948687443,-0.0194668964492,0.00617460354491,0.999640101614
1524501380360421134,3288,1524501380360421134,/world,vicon/rs/rs,-0.206962067691,0.822768939916,1.36114300811,0.0164096217296,-0.020249290914,0.00686570175241,0.999636710346
1524501380368635570,3289,1524501380368635570,/world,vicon/rs/rs,-0.20583457235,0.826814920809,1.36191566553,0.023343797091,-0.0195185322837,0.011707602241,0.999468371728
1524501380379101502,3290,1524501380379101502,/world,vicon/rs/rs,-0.20480526893,0.831539056798,1.36236054871,0.0177823873128,-0.0194767917157,0.0101421790284,0.999600709029
1524501380389696285,3291,1524501380389696285,/world,vicon/rs/rs,-0.20376275525,0.836458154293,1.36260373018,0.0169180708659,-0.021120797806,0.00776826873107,0.999603593821
1524501380398879084,3292,1524501380398879084,/world,vicon/rs/rs,-0.202695767734,0.840903552185,1.3631449306,0.0165844680701,-0.0215299710538,0.00876917469576,0.99959217551
1524501380408875415,3293,1524501380408875415,/world,vicon/rs/rs,-0.201715191196,0.845145514572,1.3636911507,0.0180501769752,-0.0210007096939,0.00987245456882,0.999567754554
1524501380418678607,3294,1524501380418678607,/world,vicon/rs/rs,-0.200624686194,0.84968393867,1.36407417977,0.0192364107935,-0.0215610682302,0.0096775385827,0.999535605211
1524501380428809892,3295,1524501380428809892,/world,vicon/rs/rs,-0.199634321216,0.85384396778,1.36455879623,0.020689273432,-0.0213041347647,0.0108799582689,0.999499732023
1524501380438768347,3296,1524501380438768347,/world,vicon/rs/rs,-0.198561862782,0.85826903961,1.36490142877,0.021155056225,-0.0219764320366,0.0106134120951,0.999478291668
1524501380448808654,3297,1524501380448808654,/world,vicon/rs/rs,-0.197571146778,0.862636320713,1.36526902856,0.0187088409985,-0.0226398055193,0.0110791889998,0.999507213604
1524501380458653763,3298,1524501380458653763,/world,vicon/rs/rs,-0.196546864324,0.866968544392,1.36558678737,0.0200905853579,-0.022706508269,0.0113845883506,0.999475449428
1524501380470508955,3299,1524501380470508955,/world,vicon/rs/rs,-0.195500181606,0.87079720874,1.36615208612,0.0233541402752,-0.0211864065697,0.01433381609,0.999399950983
1524501380478980502,3300,1524501380478980502,/world,vicon/rs/rs,-0.194474436275,0.87505649257,1.36630085244,0.0212430415295,-0.0222755780353,0.0147428609974,0.99941742023
1524501380488941391,3301,1524501380488941391,/world,vicon/rs/rs,-0.193495498984,0.879480292449,1.36641949649,0.0255288506082,-0.0216652164695,0.0129070578175,0.999355944617
1524501380498958509,3302,1524501380498958509,/world,vicon/rs/rs,-0.192631104834,0.883963118592,1.36637394417,0.023657641901,-0.0232837894911,0.0120421589228,0.999376389322
1524501380508935983,3303,1524501380508935983,/world,vicon/rs/rs,-0.191750918299,0.888105235753,1.36654592718,0.0202885775369,-0.0240257797918,0.0126261940023,0.999425692461
1524501380518756260,3304,1524501380518756260,/world,vicon/rs/rs,-0.190864897208,0.892056264185,1.36667864738,0.0248850115479,-0.0232612334778,0.0128011598455,0.999337671422
1524501380528782376,3305,1524501380528782376,/world,vicon/rs/rs,-0.190066389171,0.896062714546,1.36675872696,0.0225728227326,-0.0240335690443,0.0129141209929,0.999372843693
1524501380538945886,3306,1524501380538945886,/world,vicon/rs/rs,-0.189328263946,0.899905871633,1.36684607524,0.0270792544977,-0.0235623930269,0.0129971246269,0.999271035486
1524501380549444750,3307,1524501380549444750,/world,vicon/rs/rs,-0.18861677745,0.903386241153,1.36689886434,0.0255134650177,-0.0241605283379,0.0140243740482,0.999284068174
1524501380559094706,3308,1524501380559094706,/world,vicon/rs/rs,-0.187818267792,0.906505786359,1.36726909702,0.0301989963669,-0.0240294637278,0.018034305089,0.999092272681
1524501380569668994,3309,1524501380569668994,/world,vicon/rs/rs,-0.187190872751,0.909953217576,1.36744018677,0.0280826445897,-0.0230924292762,0.0169144654035,0.999195679356
1524501380578907251,3310,1524501380578907251,/world,vicon/rs/rs,-0.186625918086,0.913506925606,1.36761035175,0.0288270491712,-0.0229369014547,0.016489031822,0.999185173838
1524501380588958086,3311,1524501380588958086,/world,vicon/rs/rs,-0.186080361607,0.916900331249,1.3677685875,0.0297440926924,-0.023003711376,0.0167490741776,0.99915243418
1524501380598594928,3312,1524501380598594928,/world,vicon/rs/rs,-0.185698569026,0.920634716882,1.3677179519,0.0269500880329,-0.0245311387482,0.0145879642552,0.99922925662
1524501380608556130,3313,1524501380608556130,/world,vicon/rs/rs,-0.185243319249,0.923821947345,1.36768974453,0.0260573253577,-0.0255314062418,0.0149526832747,0.999222487914
1524501380618612946,3314,1524501380618612946,/world,vicon/rs/rs,-0.184706313213,0.926830227882,1.36770958312,0.027523407251,-0.0264560127199,0.0152488737903,0.999154649337
1524501380628754411,3315,1524501380628754411,/world,vicon/rs/rs,-0.18426433805,0.929888295385,1.3676745558,0.0263348852353,-0.0266832564826,0.0156501419062,0.999174434572
1524501380638973988,3316,1524501380638973988,/world,vicon/rs/rs,-0.183652300128,0.93288540326,1.36768132743,0.0287596270819,-0.0270123174945,0.0159580313142,0.999093869359
1524501380648815445,3317,1524501380648815445,/world,vicon/rs/rs,-0.183016445796,0.93584872318,1.36769113796,0.0288054965783,-0.026852078399,0.0161478235085,0.999093817941
1524501380658930644,3318,1524501380658930644,/world,vicon/rs/rs,-0.182380922626,0.938881800249,1.36775513465,0.0272164263145,-0.0265713870413,0.0165608026184,0.99913911311
1524501380668854823,3319,1524501380668854823,/world,vicon/rs/rs,-0.181684126144,0.941823670491,1.36775211945,0.0273012677535,-0.0258487381053,0.0165428475355,0.999156052733
1524501380680125872,3320,1524501380680125872,/world,vicon/rs/rs,-0.181075737696,0.944746068004,1.36765188872,0.02808223008,-0.0250147279333,0.0169244402,0.999149245641
1524501380688931029,3321,1524501380688931029,/world,vicon/rs/rs,-0.180537585814,0.947711087519,1.3674511566,0.0245283599656,-0.0248855661613,0.0166735579957,0.999250249246
1524501380698567771,3322,1524501380698567771,/world,vicon/rs/rs,-0.179872988747,0.950227545045,1.36754819703,0.0327702569395,-0.023908880192,0.0196496647502,0.998983666725
1524501380708854363,3323,1524501380708854363,/world,vicon/rs/rs,-0.179466248505,0.953112931291,1.3673480016,0.0345785952974,-0.0235530549404,0.0198137888361,0.998927919383
1524501380719041332,3324,1524501380719041332,/world,vicon/rs/rs,-0.179096724238,0.955941856883,1.36712989269,0.0315534938695,-0.0239363137229,0.0198262392517,0.999018693592
1524501380728545773,3325,1524501380728545773,/world,vicon/rs/rs,-0.178816222907,0.958679550269,1.36684588912,0.0324386390327,-0.023885664549,0.0200636471109,0.998986816625
1524501380738786462,3326,1524501380738786462,/world,vicon/rs/rs,-0.17864034415,0.961254227737,1.3665628914,0.0311649248287,-0.0238079511006,0.0211361034755,0.999007104106
1524501380748599989,3327,1524501380748599989,/world,vicon/rs/rs,-0.178509508784,0.964424818943,1.36590214751,0.0233750360698,-0.0250988345183,0.0171079578239,0.999265217034
1524501380758344223,3328,1524501380758344223,/world,vicon/rs/rs,-0.178316203841,0.96696774785,1.36560637577,0.0259758287608,-0.0252807327373,0.0178904172685,0.999182702934
1524501380768290362,3329,1524501380768290362,/world,vicon/rs/rs,-0.178230228499,0.969701307146,1.36536983057,0.0223404853945,-0.0259373798463,0.0180086385165,0.999251641969
1524501380778216861,3330,1524501380778216861,/world,vicon/rs/rs,-0.178087561854,0.972254852171,1.3650391935,0.023236671703,-0.0263741933645,0.0188772038403,0.999203738077
1524501380788826395,3331,1524501380788826395,/world,vicon/rs/rs,-0.177885603113,0.97473456741,1.36479266953,0.020521948644,-0.0266707450149,0.0193459858318,0.999246342909
1524501380798493655,3332,1524501380798493655,/world,vicon/rs/rs,-0.177642975042,0.977429733564,1.36450181866,0.0196317134607,-0.026741863108,0.0185448824863,0.999277516968
1524501380808563931,3333,1524501380808563931,/world,vicon/rs/rs,-0.177384052983,0.979962358956,1.36418517373,0.0222446301816,-0.0267873820249,0.019145702017,0.999210215463
1524501380818477400,3334,1524501380818477400,/world,vicon/rs/rs,-0.177256171369,0.982435589543,1.36385996412,0.0250152438089,-0.0260951910614,0.020068907677,0.999144893159
1524501380828500363,3335,1524501380828500363,/world,vicon/rs/rs,-0.17704217611,0.985285530761,1.36347240508,0.0201889474446,-0.02711717548,0.019212493085,0.999243686647
1524501380839860981,3336,1524501380839860981,/world,vicon/rs/rs,-0.176797565292,0.987928158636,1.36309422402,0.019863877798,-0.0274685737423,0.0192600975208,0.999239687192
1524501380848453278,3337,1524501380848453278,/world,vicon/rs/rs,-0.176478615515,0.99059561797,1.36276301864,0.0233095421938,-0.027662776921,0.0198220669372,0.999148898652
1524501380858580477,3338,1524501380858580477,/world,vicon/rs/rs,-0.176188152552,0.99335089268,1.36233768049,0.0189611358443,-0.0278483878173,0.0186955881727,0.9992574331
