%time,field.header.seq,field.header.stamp,field.header.frame_id,field.child_frame_id,field.transform.translation.x,field.transform.translation.y,field.transform.translation.z,field.transform.rotation.x,field.transform.rotation.y,field.transform.rotation.z,field.transform.rotation.w
1524587604366666226,11244,1524587604362187464,/world,vicon/rs/rs,0.242951927423,0.1154156225,1.30281479616,-0.020012621886,-0.177463025821,-0.0724074766805,0.981256096415
1524587604376433373,11245,1524587604372035061,/world,vicon/rs/rs,0.243005788865,0.115402660872,1.3028655256,-0.0199695552782,-0.177616754005,-0.0722951277828,0.981237443261
1524587604386623184,11246,1524587604382150759,/world,vicon/rs/rs,0.243250947333,0.11516776781,1.30258245895,-0.0228676092717,-0.179608037554,-0.0718944931517,0.980841071299
1524587604396598306,11247,1524587604392113944,/world,vicon/rs/rs,0.243143325274,0.115406126133,1.30298883643,-0.019738978679,-0.177952515572,-0.0726717785468,0.981153447492
1524587604406599797,11248,1524587604402131955,/world,vicon/rs/rs,0.243166626309,0.115403172009,1.30307352842,-0.0192409371136,-0.177924258412,-0.0729621297661,0.98114691674
1524587604416589671,11249,1524587604412093881,/world,vicon/rs/rs,0.243336735354,0.115187644375,1.30283942888,-0.0221251262845,-0.179640797158,-0.0730254955093,0.980768545473
1524587604426537676,11250,1524587604422092999,/world,vicon/rs/rs,0.243301002447,0.115167631024,1.30299746809,-0.0216771842643,-0.179287019668,-0.073408622638,0.980814680958
1524587604438271600,11251,1524587604433900042,/world,vicon/rs/rs,0.2427054722,0.114762275406,1.3027501798,-0.0107546399127,-0.175506726027,-0.0758119858942,0.981495934599
1524587604449838633,11252,1524587604445374488,/world,vicon/rs/rs,0.242729619808,0.114772646627,1.30289827359,-0.0112208142622,-0.17507525404,-0.0762153822006,0.981536532314
1524587604458450940,11253,1524587604454043109,/world,vicon/rs/rs,0.242710616031,0.115054852442,1.30337069277,-0.0164686652194,-0.173636944245,-0.0779300746035,0.981583362803
1524587604471321835,11254,1524587604466949808,/world,vicon/rs/rs,0.242747296797,0.115019767601,1.30349246532,-0.0159744949129,-0.173679174936,-0.0779823652075,0.981579905266
1524587604477321312,11255,1524587604472855701,/world,vicon/rs/rs,0.242831505009,0.11482391986,1.30354079879,-0.0131117887181,-0.175126470808,-0.0757909303753,0.981536823095
1524587604488297406,11256,1524587604483861732,/world,vicon/rs/rs,0.242759977508,0.114798170245,1.30362390427,-0.0159117974161,-0.174945727686,-0.07754453035,0.981390672913
1524587604503089586,11257,1524587604498592550,/world,vicon/rs/rs,0.24306782715,0.114820121062,1.30396828529,-0.00500389824868,-0.177287791318,-0.0729259373963,0.981440679668
1524587604507347390,11258,1524587604502893168,/world,vicon/rs/rs,0.243128593114,0.114830451088,1.30412627198,-0.00454430175884,-0.177577566136,-0.0733951573273,0.981355546276
1524587604516640619,11259,1524587604512088954,/world,vicon/rs/rs,0.243365874872,0.115269165646,1.30457210156,-0.0213936933164,-0.177560013319,-0.0778532622013,0.980792343527
1524587604526688202,11260,1524587604522125433,/world,vicon/rs/rs,0.243516619826,0.115303260389,1.30477002816,-0.0186634648868,-0.178372049811,-0.0769299249763,0.980773609743
1524587604536703522,11261,1524587604532094632,/world,vicon/rs/rs,0.243574375138,0.115325723169,1.30491203227,-0.0185702781679,-0.17877032675,-0.0770966399341,0.980689769067
1524587604546555057,11262,1524587604542128951,/world,vicon/rs/rs,0.243682455601,0.115297951319,1.30503596032,-0.0180122153349,-0.179336645341,-0.0769105442141,0.980611388841
1524587604556619660,11263,1524587604552091838,/world,vicon/rs/rs,0.243787919361,0.115266515044,1.30512545254,-0.0193159791973,-0.180015007781,-0.0770800927346,0.980448952891
1524587604566617143,11264,1524587604562125714,/world,vicon/rs/rs,0.243929604695,0.115227856443,1.30521150441,-0.0192190892299,-0.180710887784,-0.077240056063,0.980310244456
1524587604576446221,11265,1524587604572104560,/world,vicon/rs/rs,0.24424713262,0.115004331804,1.30496722931,-0.0223857643477,-0.182975140431,-0.0770561123561,0.979837400331
1524587604586601334,11266,1524587604582131753,/world,vicon/rs/rs,0.244203852929,0.115255201182,1.30536659794,-0.0203665415888,-0.181701169176,-0.0780972803454,0.980036072758
1524587604596987784,11267,1524587604592103339,/world,vicon/rs/rs,0.24430662694,0.115251056394,1.30541944184,-0.0204613132233,-0.182016340229,-0.078384896447,0.979952649142
1524587604606772096,11268,1524587604602118566,/world,vicon/rs/rs,0.244413797229,0.115187918662,1.30542720581,-0.0206744088585,-0.182307355861,-0.0786122932073,0.979875861614
1524587604616760314,11269,1524587604612049639,/world,vicon/rs/rs,0.244574787242,0.115144802114,1.30541219673,-0.0210028651505,-0.182625113945,-0.0788066159157,0.979794093011
1524587604626526603,11270,1524587604622108593,/world,vicon/rs/rs,0.244744882308,0.11509327735,1.30537503222,-0.0218971414071,-0.183087498997,-0.0789413104392,0.979677371595
1524587604636553154,11271,1524587604632088747,/world,vicon/rs/rs,0.244952190996,0.115078524547,1.30535451247,-0.0227804104592,-0.183590468954,-0.0792297241487,0.979539812065
1524587604646574798,11272,1524587604642147223,/world,vicon/rs/rs,0.245167493116,0.11503054144,1.30525597966,-0.0242131302172,-0.184423782173,-0.0794011234273,0.979335006263
1524587604656499393,11273,1524587604652116430,/world,vicon/rs/rs,0.245386600396,0.114933458192,1.30516605382,-0.0249051868556,-0.185004090423,-0.0796123697098,0.979191037941
1524587604666558724,11274,1524587604662102101,/world,vicon/rs/rs,0.245607193398,0.114828408517,1.30505967356,-0.0252611346417,-0.185386285383,-0.0799982293602,0.979078180519
1524587604676596218,11275,1524587604672098547,/world,vicon/rs/rs,0.245844787678,0.114717731781,1.30498541802,-0.0256076977971,-0.185743333538,-0.0804659905118,0.978963167964
1524587604686534057,11276,1524587604682051340,/world,vicon/rs/rs,0.246111460411,0.114616089594,1.30495653648,-0.0260101232583,-0.185853405595,-0.0810888546408,0.978880269885
1524587604696788143,11277,1524587604692138536,/world,vicon/rs/rs,0.246379360195,0.11456242288,1.30500358992,-0.0263952196235,-0.18559758906,-0.0819806121106,0.978844219758
1524587604706531510,11278,1524587604702136343,/world,vicon/rs/rs,0.246601733458,0.114412305904,1.30499133025,-0.0289436843334,-0.184751724486,-0.0839285942366,0.978767109432
1524587604716694441,11279,1524587604712125889,/world,vicon/rs/rs,0.246843004721,0.114243857605,1.30498730388,-0.0297587967767,-0.184403713183,-0.0848453474284,0.97872925347
1524587604726757451,11280,1524587604722212494,/world,vicon/rs/rs,0.247042559211,0.114091837573,1.30499042307,-0.0291933583413,-0.184095931949,-0.0855882138605,0.978739543146
1524587604736457282,11281,1524587604732113785,/world,vicon/rs/rs,0.247479242711,0.113800183132,1.30472013136,-0.0303794621486,-0.186510457015,-0.0850116463786,0.978296456951
1524587604746557881,11282,1524587604742133248,/world,vicon/rs/rs,0.247651335385,0.113730766979,1.30471911979,-0.0306898496202,-0.187008632957,-0.0859211711281,0.978112190233
1524587604758428674,11283,1524587604753967298,/world,vicon/rs/rs,0.247844301317,0.113611916033,1.30467552634,-0.0316032125078,-0.187836942991,-0.0865669690865,0.977867414157
1524587604766597556,11284,1524587604762308495,/world,vicon/rs/rs,0.248028910938,0.113484563223,1.304570667,-0.0327834186048,-0.188867102716,-0.0872469721326,0.977569655232
1524587604776397696,11285,1524587604772031095,/world,vicon/rs/rs,0.24821561052,0.113374356747,1.30444190086,-0.0328945948745,-0.18969816561,-0.0875818023747,0.977375045459
1524587604786489293,11286,1524587604782152068,/world,vicon/rs/rs,0.248379109167,0.113266117303,1.3043135085,-0.0333825773345,-0.190439650026,-0.0879199877932,0.977183922798
1524587604796568577,11287,1524587604792136626,/world,vicon/rs/rs,0.248417998263,0.113352379925,1.30449112212,-0.0312574915711,-0.189639558636,-0.0885193169016,0.977355686307
1524587604806528066,11288,1524587604802129182,/world,vicon/rs/rs,0.248787609255,0.112997271738,1.30409465884,-0.0349744906152,-0.191959028374,-0.0885154483772,0.976777114715
1524587604816383107,11289,1524587604812080795,/world,vicon/rs/rs,0.248848472274,0.113087342288,1.30432222625,-0.033535475134,-0.191181328842,-0.0895100445644,0.976889463211
1524587604826490242,11290,1524587604822107119,/world,vicon/rs/rs,0.249105738299,0.112961991956,1.30422271032,-0.0342824124475,-0.192366465891,-0.0900188972003,0.976584075819
1524587604836917285,11291,1524587604832403966,/world,vicon/rs/rs,0.249507035922,0.112638221004,1.3037605526,-0.0381688065498,-0.195083174978,-0.0904224300399,0.975863454174
1524587604846782381,11292,1524587604842229817,/world,vicon/rs/rs,0.249700867345,0.11243358023,1.30353654413,-0.045000424708,-0.195718642645,-0.0931210623298,0.975191079967
1524587604856711490,11293,1524587604852182206,/world,vicon/rs/rs,0.249899514908,0.112581467177,1.30377705267,-0.0406123737036,-0.19549094971,-0.0931571060223,0.97542589533
1524587604866859078,11294,1524587604862300133,/world,vicon/rs/rs,0.250319113107,0.112448606044,1.30363735663,-0.0436633335598,-0.196302984904,-0.0943905889274,0.975012342559
1524587604877230348,11295,1524587604872592277,/world,vicon/rs/rs,0.250712578824,0.112241495868,1.30345415396,-0.0466252491465,-0.196341708259,-0.0959262125885,0.974717488034
1524587604886823130,11296,1524587604882269927,/world,vicon/rs/rs,0.251294331643,0.112100195489,1.30337885011,-0.045698227518,-0.197636267889,-0.0953930049669,0.974552077736
1524587604896722307,11297,1524587604892219820,/world,vicon/rs/rs,0.251811284502,0.111861479321,1.30315696526,-0.0459256319778,-0.198469204208,-0.095931642776,0.974319214233
1524587604906872195,11298,1524587604902222410,/world,vicon/rs/rs,0.25253514738,0.111360910006,1.30264529192,-0.0502385888458,-0.201131424979,-0.0966221148065,0.973491859754
1524587604918970459,11299,1524587604913971000,/world,vicon/rs/rs,0.253120440583,0.111059505889,1.30243934911,-0.050792228822,-0.202021821853,-0.0975198065618,0.973189200677
1524587604927143403,11300,1524587604922373341,/world,vicon/rs/rs,0.253555238476,0.111027520274,1.30259852595,-0.0489602182369,-0.201086935772,-0.0990274957979,0.973324455856
1524587604937033395,11301,1524587604932322427,/world,vicon/rs/rs,0.254289303305,0.110916061396,1.30254921733,-0.0560908148094,-0.201658871983,-0.101305832441,0.972586576176
1524587604946768843,11302,1524587604942202127,/world,vicon/rs/rs,0.254915878808,0.110656367198,1.30240359726,-0.0581519459042,-0.201601121811,-0.102670859877,0.972334321828
1524587604956729243,11303,1524587604952253391,/world,vicon/rs/rs,0.255382919274,0.11012778166,1.3020907333,-0.0521442812578,-0.201131157246,-0.102025561246,0.972840180281
1524587604966732448,11304,1524587604962180879,/world,vicon/rs/rs,0.2559769441,0.109799526783,1.30196700322,-0.0541790389022,-0.20026794105,-0.103084247271,0.972795467452
1524587604976797399,11305,1524587604972318226,/world,vicon/rs/rs,0.256651233893,0.109220967604,1.30147361193,-0.060015836518,-0.200081301717,-0.104469233826,0.972343432772
1524587604986605767,11306,1524587604982170688,/world,vicon/rs/rs,0.257157834751,0.108916178104,1.30141410827,-0.0607667086241,-0.19886557556,-0.104889240952,0.972500970238
1524587604996507232,11307,1524587604992093160,/world,vicon/rs/rs,0.257710989233,0.108703651924,1.30144787779,-0.0589977431581,-0.198472897018,-0.104234863197,0.97276043749
1524587605006559339,11308,1524587605002181808,/world,vicon/rs/rs,0.258013199771,0.108631293225,1.30172494541,-0.0568077388119,-0.19617871615,-0.105030824749,0.973270423877
1524587605016566611,11309,1524587605012088799,/world,vicon/rs/rs,0.258389223962,0.10836439093,1.30171351353,-0.058017086059,-0.195497106851,-0.105414714458,0.973294732809
1524587605026634979,11310,1524587605022219885,/world,vicon/rs/rs,0.258773795368,0.108121609642,1.30172586059,-0.0580480017768,-0.194757597954,-0.105789207001,0.973400509149
1524587605036602345,11311,1524587605032226942,/world,vicon/rs/rs,0.259136176635,0.107989514213,1.30174777708,-0.0526900980427,-0.193725592748,-0.105065102836,0.973989462186
1524587605046704871,11312,1524587605042175000,/world,vicon/rs/rs,0.259662513255,0.107596808752,1.30149222244,-0.0548510945857,-0.194127053568,-0.104652203442,0.973834668109
1524587605056829038,11313,1524587605052130434,/world,vicon/rs/rs,0.259996115172,0.10735884363,1.3015592873,-0.0547568461942,-0.192908248048,-0.104121571296,0.974139001386
1524587605066823896,11314,1524587605062209321,/world,vicon/rs/rs,0.260154790333,0.107316871732,1.30198200555,-0.0529840968514,-0.189972051968,-0.10402211872,0.974824447667
1524587605076857588,11315,1524587605072197547,/world,vicon/rs/rs,0.260452507737,0.107050737924,1.30217732243,-0.0530192798354,-0.188630166464,-0.103258144996,0.975164279369
1524587605086893590,11316,1524587605082256877,/world,vicon/rs/rs,0.260713615591,0.106849868586,1.30238688251,-0.0528944676604,-0.187299219704,-0.102768772009,0.975479244827
1524587605095922708,11317,1524587605091190948,/world,vicon/rs/rs,0.26095503788,0.106574933708,1.30258186542,-0.0574383970479,-0.186092339013,-0.103533333339,0.975372401082
1524587605106517301,11318,1524587605102057080,/world,vicon/rs/rs,0.261224943793,0.106560175951,1.30293275821,-0.0620049394392,-0.184943648145,-0.104381083196,0.975220910341
1524587605116762067,11319,1524587605112120753,/world,vicon/rs/rs,0.261325607419,0.106285384591,1.30311416835,-0.0656755359883,-0.183736217283,-0.104946405581,0.975148182784
1524587605126452040,11320,1524587605122064648,/world,vicon/rs/rs,0.261340469847,0.106223161872,1.30336788264,-0.0617478484421,-0.182467422031,-0.103927335407,0.975751993114
1524587605136454898,11321,1524587605132112091,/world,vicon/rs/rs,0.261341196679,0.106039235901,1.30358853637,-0.0621251544133,-0.181488087879,-0.103059397164,0.97600271506
1524587605146385958,11322,1524587605142053278,/world,vicon/rs/rs,0.261139180151,0.105486482138,1.3035500776,-0.0533832919328,-0.180536105168,-0.0999343338395,0.977021017068
1524587605156935224,11323,1524587605152080404,/world,vicon/rs/rs,0.261123726968,0.105460164977,1.30391299898,-0.0522473616989,-0.179198312834,-0.0993284351071,0.97739042345
1524587605166726969,11324,1524587605162120279,/world,vicon/rs/rs,0.260965608123,0.105145706717,1.30409383389,-0.0469161983808,-0.177982677042,-0.0978564600687,0.978031262397
1524587605176611669,11325,1524587605172112964,/world,vicon/rs/rs,0.260771459425,0.104502095295,1.30382985923,-0.0307899542182,-0.178046081086,-0.0942426030214,0.979014761638
1524587605186895462,11326,1524587605182492539,/world,vicon/rs/rs,0.260502370282,0.104622113407,1.30436796512,-0.0281526712752,-0.175607970408,-0.0945541345381,0.979504356025
1524587605196436989,11327,1524587605192090600,/world,vicon/rs/rs,0.260414781076,0.104613359219,1.30468946491,-0.0341678662854,-0.174970920802,-0.0952312224977,0.97936139808
1524587605206435729,11328,1524587605202076653,/world,vicon/rs/rs,0.260328625618,0.104331392093,1.3046968807,-0.0354520991077,-0.175243140953,-0.0945931679017,0.979328914514
1524587605216761589,11329,1524587605212269747,/world,vicon/rs/rs,0.260172783123,0.104581556741,1.3051667667,-0.0517118646485,-0.174644075449,-0.0964791581996,0.978528028213
1524587605226622166,11330,1524587605222273189,/world,vicon/rs/rs,0.25973198467,0.10456724446,1.30540896618,-0.0514618644459,-0.173287748705,-0.0954583469609,0.978882391634
1524587605239531188,11331,1524587605235079496,/world,vicon/rs/rs,0.259121352933,0.104792582622,1.3059541849,-0.0484441168757,-0.170606272003,-0.0941209641317,0.979636622225
1524587605246543632,11332,1524587605242054013,/world,vicon/rs/rs,0.258663963295,0.10473916046,1.30616687114,-0.0481319439534,-0.16979393601,-0.0917693373675,0.980016185573
1524587605256836749,11333,1524587605252320082,/world,vicon/rs/rs,0.25835929078,0.10449037955,1.30605472755,-0.0501111491806,-0.170758246709,-0.0891581405065,0.979990469285
1524587605266418535,11334,1524587605262020175,/world,vicon/rs/rs,0.257798808351,0.1043802487,1.30623585295,-0.0443120040959,-0.169865233908,-0.0866266351548,0.980651862122
1524587605276605112,11335,1524587605272148218,/world,vicon/rs/rs,0.257301003043,0.104518982948,1.30647171318,-0.0495325142477,-0.169431963328,-0.0861282945734,0.980520910898
1524587605286508417,11336,1524587605282137712,/world,vicon/rs/rs,0.256513781898,0.104861931728,1.30700098455,-0.0467593691586,-0.166438720483,-0.0857427377192,0.981203290174
1524587605296827245,11337,1524587605292457144,/world,vicon/rs/rs,0.255982429491,0.104831227593,1.30697256643,-0.047359300774,-0.166254961444,-0.0840361139283,0.981353308437
1524587605307198170,11338,1524587605302748781,/world,vicon/rs/rs,0.25505445989,0.105132771266,1.30760791517,-0.043013175831,-0.162475138805,-0.08257883449,0.982309743446
1524587605319452742,11339,1524587605314813281,/world,vicon/rs/rs,0.254349845091,0.105226664639,1.30791939969,-0.0416601315127,-0.160697429289,-0.0802111990397,0.982856517103
1524587605326115620,11340,1524587605321506890,/world,vicon/rs/rs,0.253657238483,0.105221826319,1.30827625784,-0.0401526962209,-0.158839227394,-0.0770251754589,0.983475969799
1524587605336557165,11341,1524587605332058897,/world,vicon/rs/rs,0.253007288382,0.105253278279,1.30864080209,-0.0398755877671,-0.157137871085,-0.0739232437615,0.983998465956
1524587605346608331,11342,1524587605342098515,/world,vicon/rs/rs,0.252423816233,0.105206410354,1.30902642418,-0.0393982512175,-0.15567910771,-0.0703392440172,0.984512155321
1524587605356821718,11343,1524587605352133250,/world,vicon/rs/rs,0.251955006934,0.105119264369,1.30941884698,-0.0394037605445,-0.154010490924,-0.0667878641329,0.985021570091
1524587605366654590,11344,1524587605362128372,/world,vicon/rs/rs,0.25147331094,0.104958113832,1.30973968563,-0.0381943415191,-0.153379350528,-0.0634341436947,0.985389302013
1524587605376732719,11345,1524587605372328372,/world,vicon/rs/rs,0.251078704215,0.104789753981,1.30995408175,-0.0395264045243,-0.15354039158,-0.061449055219,0.985437479048
1524587605386586731,11346,1524587605382150950,/world,vicon/rs/rs,0.250684382235,0.104569812229,1.31021440805,-0.0385887359393,-0.153762157759,-0.059699458358,0.985547605634
1524587605396476238,11347,1524587605392073998,/world,vicon/rs/rs,0.250360222822,0.104386158126,1.31051264596,-0.0393593614245,-0.154403161609,-0.0589181693208,0.985463928146
1524587605406795385,11348,1524587605402210311,/world,vicon/rs/rs,0.250111250186,0.104240271175,1.310795948,-0.0396064366057,-0.155009867988,-0.0590428277277,0.985351315775
1524587605416589387,11349,1524587605412064571,/world,vicon/rs/rs,0.249932921681,0.104090076284,1.31108740768,-0.0398806096424,-0.155400193103,-0.0597441808123,0.985236494359
1524587605426646444,11350,1524587605422139302,/world,vicon/rs/rs,0.24977560306,0.103961002764,1.31139936209,-0.0398796099623,-0.15475864369,-0.0610132045339,0.985259746354
1524587605436451099,11351,1524587605432072994,/world,vicon/rs/rs,0.249702245872,0.103782922535,1.31172408124,-0.0391873011357,-0.153408529366,-0.0621573370508,0.985427137843
1524587605446710424,11352,1524587605442140607,/world,vicon/rs/rs,0.24990010367,0.10339169638,1.31171116287,-0.0420255241457,-0.153195423886,-0.0627454196188,0.985306058917
1524587605456447199,11353,1524587605452100980,/world,vicon/rs/rs,0.249806927096,0.10347948618,1.31237331677,-0.0386275944956,-0.148927505944,-0.0635760362691,0.98604593936
1524587605466491491,11354,1524587605462065079,/world,vicon/rs/rs,0.249885568824,0.103388299123,1.31269686296,-0.0380095623007,-0.146211952659,-0.0634621786724,0.98648359842
1524587605476610382,11355,1524587605472052437,/world,vicon/rs/rs,0.249956340898,0.103288205546,1.31301138869,-0.0369394765643,-0.143247458157,-0.0625193943345,0.98701923291
1524587605486670317,11356,1524587605482168130,/world,vicon/rs/rs,0.250265980447,0.102916682481,1.31293899276,-0.0385711831113,-0.142173084783,-0.0605155725516,0.987237024871
1524587605496600698,11357,1524587605492084815,/world,vicon/rs/rs,0.250474071281,0.102732056842,1.313217472,-0.0383355516675,-0.139201003686,-0.0586878628155,0.987779935415
1524587605506460669,11358,1524587605502042474,/world,vicon/rs/rs,0.250673015675,0.102787025173,1.31372924301,-0.0353347277762,-0.134123554532,-0.0572281463305,0.988679557997
1524587605516554236,11359,1524587605512113473,/world,vicon/rs/rs,0.250908655759,0.102677216201,1.31392385488,-0.0352976568552,-0.131640821885,-0.0555855962897,0.989108189694
1524587605526633340,11360,1524587605522132942,/world,vicon/rs/rs,0.251162835989,0.102608883806,1.31404866517,-0.0347557783037,-0.130144060417,-0.0542787951974,0.989397984536
1524587605536506744,11361,1524587605532169201,/world,vicon/rs/rs,0.251325181974,0.102505689968,1.31408014032,-0.0367520525481,-0.128800844154,-0.0539989016435,0.989516926485
1524587605546478154,11362,1524587605542092859,/world,vicon/rs/rs,0.251566935658,0.102443525675,1.31414208878,-0.0358678747422,-0.128288334606,-0.0529315841015,0.989673605877
1524587605556663206,11363,1524587605552126051,/world,vicon/rs/rs,0.251914648373,0.102373763541,1.31421089809,-0.0331201640997,-0.128081844489,-0.0514860320751,0.989872357601
1524587605566560464,11364,1524587605562086946,/world,vicon/rs/rs,0.252331067034,0.102154258947,1.31392158272,-0.0354648955619,-0.128775072772,-0.0506526926454,0.98974417227
1524587605576597216,11365,1524587605572059716,/world,vicon/rs/rs,0.25260735697,0.102096340678,1.31399477585,-0.0350272520381,-0.12704751232,-0.0501956059225,0.990006273906
1524587605586771619,11366,1524587605582162969,/world,vicon/rs/rs,0.252734756582,0.102267630503,1.31444089459,-0.0329173275655,-0.123179424393,-0.0504961943673,0.99055207501
1524587605596961732,11367,1524587605592092942,/world,vicon/rs/rs,0.252957087605,0.102130757213,1.31448718993,-0.027757494264,-0.120397551785,-0.0497509919997,0.991089698176
1524587605606755128,11368,1524587605602086879,/world,vicon/rs/rs,0.253195674883,0.102093757575,1.31452914378,-0.0271190887245,-0.117895770291,-0.0494460269605,0.99142333682
1524587605616662066,11369,1524587605612152251,/world,vicon/rs/rs,0.25354846547,0.102141758804,1.31460349598,-0.0310587902126,-0.115483912244,-0.0495647171446,0.99158567778
1524587605626696698,11370,1524587605622130689,/world,vicon/rs/rs,0.253853564086,0.102113605175,1.31457457878,-0.0305868218512,-0.11259443253,-0.0491262419892,0.991954410465
1524587605636509609,11371,1524587605632119890,/world,vicon/rs/rs,0.254047996371,0.102089360941,1.31447559653,-0.0322364989501,-0.109240173994,-0.0495011113468,0.992258551234
1524587605646660281,11372,1524587605642187834,/world,vicon/rs/rs,0.25430103131,0.10204672464,1.31435522583,-0.0262174154018,-0.106935885669,-0.0474458112005,0.992787116398
1524587605656577808,11373,1524587605652099071,/world,vicon/rs/rs,0.254518197601,0.101963940441,1.31429639251,-0.0255868303131,-0.104495278826,-0.0463524386905,0.993115049853
1524587605666483492,11374,1524587605662081421,/world,vicon/rs/rs,0.254909253736,0.101905597045,1.31431913523,-0.0291746196046,-0.102341563457,-0.0452736288068,0.99329016128
1524587605678316399,11375,1524587605673815318,/world,vicon/rs/rs,0.255268348688,0.101812697648,1.31427999107,-0.0302393313412,-0.100092025074,-0.0441766300036,0.993536911603
1524587605686496699,11376,1524587605682099049,/world,vicon/rs/rs,0.255796324747,0.10151922264,1.31384644847,-0.0316331590313,-0.0997224582429,-0.0425617532104,0.993601163312
1524587605697066739,11377,1524587605692537361,/world,vicon/rs/rs,0.256266281191,0.101420204551,1.3137728975,-0.0314744414392,-0.0975635640412,-0.0421937053488,0.993836204682
1524587605706512489,11378,1524587605702120423,/world,vicon/rs/rs,0.25656886049,0.101417866521,1.31396486566,-0.0247434157295,-0.0935267583862,-0.0425429261316,0.994399622023
1524587605716820905,11379,1524587605712178198,/world,vicon/rs/rs,0.256935162419,0.101297503687,1.31373794955,-0.0208252740736,-0.0917315836997,-0.0425924663203,0.994654465794
1524587605726869428,11380,1524587605722102192,/world,vicon/rs/rs,0.257215932924,0.100878812471,1.31335653306,0.00835765884598,-0.086996414901,-0.0412135364854,0.995320660764
1524587605736870221,11381,1524587605732145271,/world,vicon/rs/rs,0.257769478083,0.100862784304,1.31327536553,0.00208988614839,-0.0854768817182,-0.0418728293726,0.995457684298
1524587605746640997,11382,1524587605742133807,/world,vicon/rs/rs,0.258237628467,0.100748159441,1.31315726186,0.00311042724504,-0.0824918621786,-0.0419935694775,0.995701741507
1524587605756558810,11383,1524587605752084686,/world,vicon/rs/rs,0.258741407367,0.100568636613,1.313007551,0.00324982794034,-0.0796933443935,-0.0417594219927,0.995939034355
1524587605766836012,11384,1524587605762218500,/world,vicon/rs/rs,0.259185241888,0.100380860927,1.31281925902,0.00300161746528,-0.0777894628342,-0.041190233541,0.996114026819
1524587605776362419,11385,1524587605771923560,/world,vicon/rs/rs,0.259560234859,0.100214972936,1.31264076385,-0.0048165921105,-0.0796974034898,-0.0391774718582,0.996037273407
1524587605786634999,11386,1524587605782133045,/world,vicon/rs/rs,0.259771148371,0.0998480277805,1.31199266673,-0.00346332107283,-0.083729811515,-0.0349221005768,0.995870358512
1524587605796638493,11387,1524587605792169282,/world,vicon/rs/rs,0.259995784215,0.099879315559,1.31224478706,-0.00859451688803,-0.0850689834099,-0.0327811865772,0.995798572076
1524587605806552629,11388,1524587605802096455,/world,vicon/rs/rs,0.260418746014,0.0994738113502,1.31185474595,-0.0130538978858,-0.0884732955439,-0.0298834501044,0.995544600274
1524587605816540669,11389,1524587605812058138,/world,vicon/rs/rs,0.260617294423,0.0994070595477,1.31216447806,-0.0119303336433,-0.0877217677698,-0.0279615530981,0.995681028315
1524587605826557473,11390,1524587605822138720,/world,vicon/rs/rs,0.260733436383,0.0992593266712,1.3121409869,-0.0148176614448,-0.089095150975,-0.0259984220757,0.995573489518
1524587605838452154,11391,1524587605834068184,/world,vicon/rs/rs,0.261114388951,0.098889974959,1.31189506915,-0.0175502913038,-0.0912913322563,-0.0228856084971,0.995406514372
1524587605846646227,11392,1524587605842161443,/world,vicon/rs/rs,0.261593419999,0.0988729289244,1.31226438427,-0.0341519609077,-0.0929813861985,-0.021454628463,0.99485064422
1524587605856587525,11393,1524587605852166854,/world,vicon/rs/rs,0.261790340854,0.0986579303742,1.31258783851,-0.0332530005349,-0.0918147591317,-0.0194810561753,0.995030037944
1524587605866994089,11394,1524587605862546639,/world,vicon/rs/rs,0.261935450766,0.0987024507428,1.31330395289,-0.0344747606226,-0.0883202977461,-0.0188214460912,0.995317421255
1524587605876640258,11395,1524587605872135310,/world,vicon/rs/rs,0.26232159832,0.0983432818075,1.31325592597,-0.0355078252278,-0.0874675092988,-0.01691089784,0.995390702538
1524587605886723581,11396,1524587605882178200,/world,vicon/rs/rs,0.262599223776,0.0981690269475,1.3135589955,-0.0350286444409,-0.0842313823882,-0.0156827797465,0.995706843759
1524587605895896691,11397,1524587605891401083,/world,vicon/rs/rs,0.262845464013,0.0979855339898,1.31386452647,-0.036547546933,-0.0807349946114,-0.0133096191033,0.995976401075
1524587605906903581,11398,1524587605902521610,/world,vicon/rs/rs,0.262867465045,0.0979133237818,1.31444344752,-0.03653043693,-0.0759092579284,-0.0122313344821,0.996370265612
1524587605917628342,11399,1524587605913177336,/world,vicon/rs/rs,0.262983405034,0.0977034838672,1.31458364686,-0.0288374095705,-0.0748212930164,-0.0104982723359,0.996724618036
1524587605927001145,11400,1524587605922387733,/world,vicon/rs/rs,0.263149019758,0.0974859964889,1.31471038836,-0.0223717783411,-0.073363816326,-0.0101498436319,0.997002625203
1524587605936439477,11401,1524587605932102757,/world,vicon/rs/rs,0.26322328014,0.0973019779908,1.31497488864,-0.0206909764791,-0.0730027640097,-0.0104243009382,0.997062592764
1524587605947036205,11402,1524587605942417426,/world,vicon/rs/rs,0.263416226332,0.0972187340414,1.31532085176,-0.0277422822215,-0.0732520914983,-0.0112916359837,0.996863579345
1524587605956736920,11403,1524587605952175924,/world,vicon/rs/rs,0.2636868077,0.0968171319545,1.31517101843,-0.0305543972523,-0.0746329648859,-0.0108562802546,0.996683746501
1524587605966479851,11404,1524587605962096991,/world,vicon/rs/rs,0.26368547833,0.0968965337252,1.31564940016,-0.0285206738553,-0.0722496458438,-0.0118585422384,0.996908187756
1524587605976558576,11405,1524587605972059912,/world,vicon/rs/rs,0.263710049288,0.0967870864423,1.31571825716,-0.028057770985,-0.0716973802899,-0.0122663419845,0.996956259823
1524587605986727699,11406,1524587605982407917,/world,vicon/rs/rs,0.263788519703,0.0965411830679,1.31541670268,-0.0290779253258,-0.0725691722235,-0.0124349408284,0.996861856903
1524587605997967652,11407,1524587605993199550,/world,vicon/rs/rs,0.26364439405,0.0964559868667,1.31553495426,-0.0270145533211,-0.070793200207,-0.0130245322325,0.99704006854
1524587606006951375,11408,1524587606002448868,/world,vicon/rs/rs,0.263384243562,0.0963558135693,1.31561178952,-0.0270506797929,-0.068338546535,-0.0140522351514,0.997196389117
1524587606016865213,11409,1524587606012414824,/world,vicon/rs/rs,0.263237355189,0.096308571401,1.31569457468,-0.0225489570844,-0.0673872909722,-0.0136657141893,0.997378436605
1524587606026581283,11410,1524587606022091647,/world,vicon/rs/rs,0.262891572734,0.0963895068709,1.31606438479,-0.0181312437683,-0.0644258555098,-0.0146302504339,0.997650501385
1524587606037073588,11411,1524587606032700769,/world,vicon/rs/rs,0.262790355088,0.0963376148216,1.3160780207,-0.0172255472164,-0.0636280135506,-0.0153624020927,0.997706747004
1524587606046932438,11412,1524587606042394785,/world,vicon/rs/rs,0.26283583328,0.0962364247459,1.31614298802,-0.0169480714855,-0.0627682141295,-0.0158447951179,0.997758415968
1524587606055578368,11413,1524587606051156463,/world,vicon/rs/rs,0.262886905834,0.0959686757564,1.31615705771,-0.00896531780369,-0.0607069724791,-0.0150542291605,0.998001832039
1524587606066481235,11414,1524587606062058355,/world,vicon/rs/rs,0.263209736037,0.0958698385396,1.31637782018,-0.0157792442414,-0.0601696840161,-0.0147160319006,0.997954940356
1524587606075907472,11415,1524587606071421783,/world,vicon/rs/rs,0.263396153943,0.0956904176352,1.31645508007,-0.0164235446492,-0.0587011517119,-0.0140329650141,0.998041841739
1524587606089186952,11416,1524587606084372959,/world,vicon/rs/rs,0.263533919621,0.0955418154106,1.3164755373,-0.0163485023796,-0.0575560151723,-0.0134031014256,0.998118424066
1524587606096642085,11417,1524587606092074353,/world,vicon/rs/rs,0.263687133315,0.0953701012529,1.31649363891,-0.0172505226505,-0.0569041548113,-0.012675244447,0.99815012639
1524587606106586973,11418,1524587606102114373,/world,vicon/rs/rs,0.263718442238,0.095235547258,1.31653553027,-0.00927727722545,-0.0549774051989,-0.0124343275444,0.99836706904
1524587606116718759,11419,1524587606112115910,/world,vicon/rs/rs,0.264022184,0.0949867159422,1.31669680579,-0.0169761247771,-0.0554844883244,-0.0115173509941,0.998248783305
1524587606126952265,11420,1524587606122421485,/world,vicon/rs/rs,0.264262815957,0.0946438391806,1.31682665168,-0.0158054579551,-0.0548605441948,-0.0106816412789,0.998311780322
1524587606136610151,11421,1524587606132059263,/world,vicon/rs/rs,0.264476178714,0.094406948554,1.31695910559,-0.014839787409,-0.0539764649464,-0.00997283535018,0.998382123486
1524587606146672927,11422,1524587606142354192,/world,vicon/rs/rs,0.264538344283,0.0940789167826,1.31700622303,-0.009379698192,-0.0521676042375,-0.00915610684297,0.998552316124
1524587606158308746,11423,1524587606153811329,/world,vicon/rs/rs,0.264747054437,0.09382639688,1.31721673015,-0.0115878197151,-0.0506665163632,-0.00880536086298,0.998609579452
1524587606166623962,11424,1524587606162162668,/world,vicon/rs/rs,0.265106813821,0.0936672769942,1.31757432473,-0.0206939787646,-0.0500596714517,-0.00877655773144,0.998493245131
1524587606176695509,11425,1524587606172196122,/world,vicon/rs/rs,0.265238581849,0.0934763056973,1.31780528248,-0.0200116743767,-0.0488339923143,-0.00848616354078,0.998570357617
1524587606186848534,11426,1524587606182437755,/world,vicon/rs/rs,0.265340057468,0.0933106455576,1.31796641605,-0.0207265594564,-0.0484271101619,-0.00849476012898,0.998575517317
1524587606195850061,11427,1524587606191294039,/world,vicon/rs/rs,0.265458039927,0.093165027944,1.31808984603,-0.01962938114,-0.0481175023504,-0.00892937176118,0.99860886221
1524587606206664579,11428,1524587606202177205,/world,vicon/rs/rs,0.265640666054,0.0928973575383,1.31808145768,-0.0129896904644,-0.0477152367171,-0.00850726308063,0.998740281856
1524587606216641259,11429,1524587606212120980,/world,vicon/rs/rs,0.265679773257,0.09274445792,1.31825395444,-0.0164499691108,-0.0471450461378,-0.00950188126996,0.998707393281
1524587606226560333,11430,1524587606222081026,/world,vicon/rs/rs,0.265553871863,0.0919804603149,1.31793417145,0.020034239405,-0.0427165048709,-0.00740277421617,0.998858913159
1524587606236555866,11431,1524587606232121100,/world,vicon/rs/rs,0.265800509807,0.0916976755086,1.31804224767,0.0188859210191,-0.0417924639861,-0.00689591605357,0.998924000254
1524587606246538051,11432,1524587606242087801,/world,vicon/rs/rs,0.266104812565,0.0915106244002,1.3182030235,0.0122464589912,-0.0411690771945,-0.00623893857905,0.999057659482
1524587606256814320,11433,1524587606252414310,/world,vicon/rs/rs,0.266276702244,0.091129820015,1.31822311529,0.0187138157608,-0.0385049003891,-0.00526567305214,0.999069286102
1524587606266836070,11434,1524587606262305712,/world,vicon/rs/rs,0.266550328068,0.0908244644236,1.31824753797,0.0180870727435,-0.0363788742492,-0.00412746256991,0.999165851779
1524587606277478747,11435,1524587606272233134,/world,vicon/rs/rs,0.26682740838,0.0905178213682,1.31827461828,0.0186733360469,-0.0338992774919,-0.00314056541266,0.999245856812
1524587606286796090,11436,1524587606282111556,/world,vicon/rs/rs,0.267173212717,0.0903272494608,1.31832001188,0.0132756692509,-0.0322924956271,-0.00239542279544,0.999387419013
1524587606296599310,11437,1524587606292113785,/world,vicon/rs/rs,0.267601809043,0.0899893587078,1.31803509945,0.0129905513669,-0.0321074661924,-0.00186287729098,0.999398261895
1524587606306412189,11438,1524587606302079819,/world,vicon/rs/rs,0.267902547407,0.0897412738963,1.31822153724,0.0164419795027,-0.0292220882203,-0.00188690891517,0.999435926133
1524587606318465910,11439,1524587606313968726,/world,vicon/rs/rs,0.268237637617,0.0894528319294,1.31815576956,0.0170964417145,-0.0274079267361,-0.00155025394232,0.999476920166
1524587606326762925,11440,1524587606322092317,/world,vicon/rs/rs,0.268494613993,0.0890507177844,1.31803732614,0.0239286412549,-0.0244401467592,-0.000976456387681,0.999414401481
1524587606336555933,11441,1524587606332097545,/world,vicon/rs/rs,0.2688307198,0.0888246607627,1.31795726824,0.0228779886461,-0.0222583485517,-0.000442096235022,0.999490354184
1524587606346567534,11442,1524587606342119932,/world,vicon/rs/rs,0.269133701897,0.0886405035812,1.31789303144,0.0118000874543,-0.0205613366104,-0.0003440930381,0.999718895977
1524587606356534671,11443,1524587606352104243,/world,vicon/rs/rs,0.269369431667,0.0884148523967,1.31771270771,0.0105167337123,-0.0192722516068,0.000201334502541,0.999758939992
1524587606366575266,11444,1524587606362098932,/world,vicon/rs/rs,0.269472970428,0.0882267229813,1.31747311869,0.00878950291885,-0.018599952395,0.000101577627604,0.999788365651
1524587606376813795,11445,1524587606372284079,/world,vicon/rs/rs,0.269515116634,0.0880745552844,1.31724886223,0.00762145967325,-0.0180498191154,-0.00047793772557,0.999807926033
1524587606386618301,11446,1524587606382159002,/world,vicon/rs/rs,0.269349350551,0.0879260946609,1.31699305388,-0.00314742030831,-0.0169576750363,-0.00280163726538,0.999847329262
1524587606396343471,11447,1524587606392043675,/world,vicon/rs/rs,0.269510560843,0.0877509491615,1.31682664013,0.00212431714391,-0.0163319643794,-0.00194796780894,0.999862470362
1524587606406556957,11448,1524587606402095674,/world,vicon/rs/rs,0.269656917783,0.0878323115147,1.31685107866,0.00376063575225,-0.0141257722694,-0.00305675650617,0.99988848199
1524587606416525268,11449,1524587606412088762,/world,vicon/rs/rs,0.269886207086,0.0875371286816,1.3164666599,0.00188930301096,-0.013777756128,-0.00283275079889,0.999899284675
1524587606426618793,11450,1524587606422192719,/world,vicon/rs/rs,0.270234459551,0.0873571496439,1.31642180501,0.00648163986187,-0.0126741597586,-0.00199408944726,0.999896683476
1524587606437217606,11451,1524587606432735426,/world,vicon/rs/rs,0.270540727821,0.0869314398741,1.31634797438,-0.0172669216564,-0.0132461921439,-0.0015288813407,0.999761998844
1524587606447724846,11452,1524587606443298557,/world,vicon/rs/rs,0.270652248363,0.0865390438024,1.31617329829,-0.00390234805673,-0.00931519791432,-0.00188890823398,0.999947214003
1524587606458036812,11453,1524587606453630833,/world,vicon/rs/rs,0.271058774348,0.0862730895581,1.31612713115,-0.00364793680893,-0.00790970919031,-0.001175757621,0.99996137258
1524587606467658560,11454,1524587606463289977,/world,vicon/rs/rs,0.271540883999,0.0858098667093,1.31606529679,-0.0138700354381,-0.00743091196111,0.000135617372029,0.999876184971
1524587606478431175,11455,1524587606473970101,/world,vicon/rs/rs,0.272189768716,0.0856456750169,1.31600136873,-0.011581998545,-0.00569929490637,0.000295791242755,0.999916640453
1524587606487831634,11456,1524587606483413319,/world,vicon/rs/rs,0.272872368119,0.0853769005542,1.31618891412,-0.00455321309318,-0.00369936812886,0.00210297773085,0.999980580017
1524587606497062490,11457,1524587606492709098,/world,vicon/rs/rs,0.273394108234,0.0850164835792,1.31633240919,-0.00167292432513,-0.00161066637875,0.00416039135998,0.999988649046
1524587606506795072,11458,1524587606502290163,/world,vicon/rs/rs,0.274433635248,0.0849077658799,1.31673197678,0.0143990840668,-0.00259509516536,0.0106094727042,0.999836672136
1524587606516723982,11459,1524587606512167565,/world,vicon/rs/rs,0.274888241048,0.0846666330723,1.31691491755,0.00652443496861,-0.00294110537903,0.0123463211536,0.999898169816
1524587606526550867,11460,1524587606522137577,/world,vicon/rs/rs,0.275321678756,0.0850039927414,1.31708155953,0.00381659465604,-0.00182757952527,0.0118299068176,0.999921070317
1524587606536544193,11461,1524587606532082788,/world,vicon/rs/rs,0.275866573013,0.085759404299,1.31718886069,0.00082407184297,-0.00125665412981,0.00850173495124,0.99996273042
1524587606546606812,11462,1524587606542133257,/world,vicon/rs/rs,0.276494084225,0.0863653955466,1.31734541546,-0.00011310994004,-0.000614093997244,0.00577579049888,0.999983125027
1524587606556543263,11463,1524587606552092596,/world,vicon/rs/rs,0.277235395439,0.0867075601898,1.31757730843,-0.00256079573133,-0.000258494586922,0.00501632575717,0.999984105865
1524587606566490866,11464,1524587606562067891,/world,vicon/rs/rs,0.277965949389,0.0869609232652,1.31790931375,-0.00086060879856,0.00077704213762,0.00451049356668,0.999989155444
1524587606576635616,11465,1524587606572157255,/world,vicon/rs/rs,0.278845045673,0.0870956065871,1.31812712398,-0.0149200372506,-0.000822199767002,0.00492070373074,0.999876243918
1524587606586953310,11466,1524587606582156668,/world,vicon/rs/rs,0.279757400563,0.0877613205379,1.3190667647,-0.0122534586847,0.00276521569097,0.00387770988774,0.999913581115
1524587606597195531,11467,1524587606592143612,/world,vicon/rs/rs,0.280642049862,0.0881854499858,1.31954950387,0.00543128354967,0.00655319849992,0.00281606910207,0.999959812444
1524587606606610005,11468,1524587606602095313,/world,vicon/rs/rs,0.281460976899,0.0883120574344,1.31970775818,-0.00582766740536,0.00521529302881,0.00196579937686,0.999967486793
1524587606616604896,11469,1524587606612081038,/world,vicon/rs/rs,0.282281229676,0.0887582544465,1.32006048593,-0.00906178250725,0.0048361961789,0.00060031490059,0.999947066062
1524587606626560708,11470,1524587606622155221,/world,vicon/rs/rs,0.283074342682,0.0894738649265,1.32049188053,-0.00779044130404,0.00533743003725,-0.00247276952022,0.999952352003
1524587606638409066,11471,1524587606633843759,/world,vicon/rs/rs,0.283759585387,0.089719383155,1.32058758326,-0.00562059019001,0.00474192605319,-0.00364514441911,0.999966317445
1524587606650055231,11472,1524587606645605031,/world,vicon/rs/rs,0.284514019805,0.0904100604467,1.32112885547,-0.00090143787715,0.00616911452884,-0.00652445072736,0.99995927966
1524587606657693205,11473,1524587606653099587,/world,vicon/rs/rs,0.285384864581,0.0911566636629,1.32147363999,0.000110418036911,0.00616393909597,-0.00924826327691,0.999938229737
1524587606666938871,11474,1524587606662338099,/world,vicon/rs/rs,0.286346181989,0.0920993884223,1.32199536052,0.00127011150006,0.0066357738465,-0.0126074455379,0.999897697587
1524587606676921536,11475,1524587606672267609,/world,vicon/rs/rs,0.28719724721,0.0924716141614,1.32210423909,0.00572761437147,0.00581966298429,-0.0137536235204,0.999872073716
1524587606686587919,11476,1524587606682190991,/world,vicon/rs/rs,0.288177957659,0.093127185771,1.32247164931,0.00798270637835,0.00554294732494,-0.0155422289577,0.999831981511
1524587606696532198,11477,1524587606692020760,/world,vicon/rs/rs,0.289412612261,0.094115879854,1.32312096234,0.00845090430615,0.00604564400678,-0.0184167658338,0.999776402573
1524587606706610020,11478,1524587606702166762,/world,vicon/rs/rs,0.290668046615,0.0948681409195,1.32366269354,0.0150748091396,0.00712352015173,-0.020948317186,0.999641522546
1524587606716560565,11479,1524587606712102962,/world,vicon/rs/rs,0.29221391051,0.0954454325109,1.32396540626,0.00991986478564,0.00621094690849,-0.0206802110819,0.99971763478
1524587606726629735,11480,1524587606722070336,/world,vicon/rs/rs,0.293803067737,0.0963904867771,1.3246923149,0.0111480600212,0.0073376906254,-0.0224746250262,0.999658326772
1524587606736707816,11481,1524587606732360857,/world,vicon/rs/rs,0.295350475065,0.0972473371905,1.32544070245,0.011626984322,0.00822924063074,-0.0235357775829,0.999621508376
1524587606746533779,11482,1524587606742160386,/world,vicon/rs/rs,0.296861741718,0.0980526737999,1.32623256158,0.0141349382956,0.00943453696015,-0.0245987461327,0.999552947432
1524587606756843309,11483,1524587606752180939,/world,vicon/rs/rs,0.29854012505,0.0993142650233,1.32733082843,0.0151446660854,0.0111085807008,-0.0271339646302,0.999455344919
1524587606766587025,11484,1524587606762162199,/world,vicon/rs/rs,0.30005954279,0.0999327607099,1.32784273947,0.0125451922918,0.00986539455063,-0.026736666435,0.999515103842
1524587606776757079,11485,1524587606772187282,/world,vicon/rs/rs,0.301631968504,0.100881450356,1.3286192219,0.0153703817792,0.0101715803672,-0.0285343924844,0.999422872843
1524587606786430992,11486,1524587606782101975,/world,vicon/rs/rs,0.303245802126,0.101901614118,1.32937753125,0.0141631846792,0.00990057490076,-0.0299358811365,0.999402434376
1524587606796567405,11487,1524587606792148529,/world,vicon/rs/rs,0.304752866997,0.102862742048,1.33004577648,0.0247159605311,0.0109107274044,-0.0315962911991,0.999135502174
1524587606806580478,11488,1524587606802128036,/world,vicon/rs/rs,0.306340363672,0.104133174015,1.33110568588,0.0268678646376,0.0124361061757,-0.0344687711255,0.998967149075
1524587606816579885,11489,1524587606812145353,/world,vicon/rs/rs,0.307688576605,0.104588933473,1.33146844124,0.0141133182978,0.00991788355221,-0.0332149826958,0.999299361932
1524587606827116040,11490,1524587606822435163,/world,vicon/rs/rs,0.308911260558,0.105143714256,1.33198248874,0.0177795907925,0.0095847331629,-0.0334176990072,0.999237347398
1524587606837753186,11491,1524587606833035126,/world,vicon/rs/rs,0.310143613316,0.105841912791,1.33243825637,0.0135054282929,0.00808643070269,-0.0331592970532,0.999326109968
1524587606846618160,11492,1524587606842087211,/world,vicon/rs/rs,0.31120406521,0.106378090691,1.33275863149,0.0172722431375,0.0073157286383,-0.0332353108791,0.999271516577
1524587606857108567,11493,1524587606852638018,/world,vicon/rs/rs,0.312333895675,0.107435478711,1.33325608026,0.0215149530678,0.00763878555184,-0.0348406258149,0.999132066617
1524587606866774966,11494,1524587606862321362,/world,vicon/rs/rs,0.313219487715,0.107712168019,1.3333609901,0.0210400054841,0.00660951943779,-0.0347978581096,0.999151010355
1524587606902391032,11495,1524587606897909543,/world,vicon/rs/rs,0.314533231869,0.108309793857,1.33329651715,0.0187453243795,0.00495432747625,-0.0348888179966,0.999203101392
1524587606906499525,11496,1524587606901947137,/world,vicon/rs/rs,0.315798280848,0.108819810064,1.33299428318,0.0262994186915,0.00312335614022,-0.0326381169834,0.99911627879
1524587606910416902,11497,1524587606905964074,/world,vicon/rs/rs,0.316472760259,0.109642029327,1.33317705373,0.0325754069405,0.00463636591098,-0.0340990864542,0.998876668702
1524587606916167758,11498,1524587606911635482,/world,vicon/rs/rs,0.316950325982,0.10928751971,1.33200983827,0.0274409411617,0.000767643134028,-0.0298674056558,0.999176832974
1524587606927075493,11499,1524587606922641470,/world,vicon/rs/rs,0.317397611667,0.109469455183,1.33143853349,0.0294398485893,0.000128850324271,-0.0284025522036,0.999162936533
1524587606936785107,11500,1524587606932336441,/world,vicon/rs/rs,0.317777808838,0.109730561707,1.3308951985,0.0286561000111,-0.000201573544747,-0.0282258098544,0.99919071801
1524587606946613825,11501,1524587606942170413,/world,vicon/rs/rs,0.318236666103,0.110047919212,1.32979194017,0.0130759147499,-0.000591958448947,-0.0307377061081,0.999441775924
1524587606956605838,11502,1524587606952179286,/world,vicon/rs/rs,0.318988977469,0.110521769493,1.32918100772,0.0297172334493,-0.00314807116862,-0.0284194973532,0.999149292075
1524587606966612539,11503,1524587606962133474,/world,vicon/rs/rs,0.31968353086,0.110966267992,1.3280083664,0.0310279286947,-0.00454701556241,-0.0294957832134,0.999072865743
1524587606976557981,11504,1524587606972133367,/world,vicon/rs/rs,0.320790921286,0.111924527485,1.32673190934,0.0337334863501,-0.00670830109637,-0.031221690227,0.998920545716
1524587606986562596,11505,1524587606982117414,/world,vicon/rs/rs,0.32160721879,0.111774817787,1.3244693979,0.0285335916078,-0.0119163432061,-0.0288416377544,0.999105597445
1524587606996574770,11506,1524587606992120840,/world,vicon/rs/rs,0.322659447071,0.112890956678,1.32272234595,0.0431405158606,-0.0125628943359,-0.0304179617086,0.998526823467
1524587607006606475,11507,1524587607002112924,/world,vicon/rs/rs,0.323672363002,0.11310439248,1.32017567812,0.0324573553311,-0.0163495762086,-0.0293328794174,0.998908801457
1524587607018341690,11508,1524587607013814582,/world,vicon/rs/rs,0.324690355728,0.113942082135,1.31800535908,0.0321299425225,-0.0158636398681,-0.0301683431639,0.998902338967
1524587607026807903,11509,1524587607022422121,/world,vicon/rs/rs,0.325582635252,0.113621534042,1.31462087259,0.0250669244365,-0.0184390961622,-0.0251828778822,0.999198414577
1524587607036399259,11510,1524587607032040480,/world,vicon/rs/rs,0.326448048823,0.113886151553,1.31155707659,0.019991681731,-0.0173111257683,-0.0241569450974,0.999358343934
1524587607046864143,11511,1524587607042389157,/world,vicon/rs/rs,0.327082666473,0.113972616689,1.30793167606,0.0168726329867,-0.0175727768427,-0.021059436197,0.999481371471
1524587607056518232,11512,1524587607052117517,/world,vicon/rs/rs,0.327732001776,0.114069544729,1.30376092484,0.0108578986923,-0.0196208445437,-0.0183411195964,0.99958027783
1524587607066976955,11513,1524587607062583319,/world,vicon/rs/rs,0.328363625486,0.114200588687,1.29926441761,0.0110998643907,-0.0220032031194,-0.0160141545892,0.999568006149
1524587607076577398,11514,1524587607072115195,/world,vicon/rs/rs,0.328873305538,0.1141075747,1.29450322397,0.00509418232143,-0.0255859461807,-0.0143039110217,0.999557305408
1524587607086540552,11515,1524587607082087210,/world,vicon/rs/rs,0.329424031024,0.114377231089,1.29001272279,0.00612696219779,-0.0269044888815,-0.0142150669463,0.999518154254
1524587607096733123,11516,1524587607092259482,/world,vicon/rs/rs,0.330208875569,0.113987648367,1.28480693004,-0.000322898161224,-0.0319323088309,-0.0114376143425,0.999424536605
1524587607106672143,11517,1524587607102099107,/world,vicon/rs/rs,0.330993772292,0.11388073354,1.28026384436,-0.00455670156297,-0.0332920268983,-0.010069523741,0.999384551665
1524587607116709900,11518,1524587607112160585,/world,vicon/rs/rs,0.331740086508,0.11326115388,1.27601367593,-0.0071533993144,-0.0329942861405,-0.00703254648251,0.99940519773
1524587607126692350,11519,1524587607122136236,/world,vicon/rs/rs,0.332580027561,0.112742308928,1.27166157292,-0.0218943826745,-0.0311024470432,-0.00678115600929,0.999253366128
1524587607136490474,11520,1524587607132083238,/world,vicon/rs/rs,0.333642320975,0.112055503301,1.26763695578,-0.0273686666995,-0.0327823153368,-0.00390459155095,0.999080091909
1524587607146690011,11521,1524587607142148927,/world,vicon/rs/rs,0.334490306376,0.111656131296,1.26445166114,-0.0322565875497,-0.0310123006396,-0.00332549657181,0.998992838233
1524587607156569931,11522,1524587607152092840,/world,vicon/rs/rs,0.335652998554,0.111106157058,1.26088024147,-0.0319857685817,-0.0328327722976,-0.0016618437272,0.998947525122
1524587607166546894,11523,1524587607162147885,/world,vicon/rs/rs,0.336508156003,0.110693447386,1.25776836182,-0.0324224040262,-0.0340458794416,-0.00203706232068,0.998892144422
1524587607176693562,11524,1524587607172144652,/world,vicon/rs/rs,0.337617986996,0.110491145453,1.25500593573,-0.0370752251714,-0.036242579412,-0.00302330799342,0.998650470748
1524587607186507165,11525,1524587607182155177,/world,vicon/rs/rs,0.33865846326,0.110317906405,1.25274660358,-0.0354969922926,-0.0369009141314,-0.00400234057889,0.998680262819
1524587607196594811,11526,1524587607192133639,/world,vicon/rs/rs,0.339636995725,0.109871309695,1.25106727333,-0.038618600213,-0.0368945371057,-0.00429489377224,0.998563443521
1524587607206688347,11527,1524587607202108619,/world,vicon/rs/rs,0.34068747962,0.109361285215,1.24978896442,-0.0435658639407,-0.0371713181156,-0.00328655329762,0.998353397939
1524587607216569074,11528,1524587607212147110,/world,vicon/rs/rs,0.341561130528,0.109001950312,1.24959845387,-0.0424656070203,-0.0339092271851,-0.00182441927224,0.998520659789
1524587607228354302,11529,1524587607223876039,/world,vicon/rs/rs,0.342344877777,0.108731036195,1.24973262537,-0.043140632158,-0.0309561708214,-0.000933596030457,0.998588869227
1524587607236593205,11530,1524587607232115392,/world,vicon/rs/rs,0.343166801045,0.108464693593,1.24997197981,-0.042118473651,-0.0295513365226,0.000502428969563,0.998675372807
1524587607248783709,11531,1524587607244141059,/world,vicon/rs/rs,0.343972760235,0.108326109129,1.25036465784,-0.0430309045403,-0.0294600976314,0.00123441400922,0.998638533266
1524587607256509450,11532,1524587607252044690,/world,vicon/rs/rs,0.344690150556,0.108336234513,1.25103680243,-0.0446555051826,-0.0300831353111,0.0016305459374,0.998548062011
1524587607268490284,11533,1524587607264104432,/world,vicon/rs/rs,0.345278870242,0.108445623452,1.25207270016,-0.0435432424392,-0.0305342493027,0.00124092006481,0.998584050431
1524587607280129934,11534,1524587607275522083,/world,vicon/rs/rs,0.345968077741,0.108637911751,1.25324542023,-0.0440313844103,-0.0324019474779,0.00138371545571,0.99850359855
1524587607286789643,11535,1524587607282132744,/world,vicon/rs/rs,0.346728779943,0.108670321107,1.25428670488,-0.0422935083141,-0.0357630351199,0.00198307274294,0.99846298474
1524587607296519834,11536,1524587607292079120,/world,vicon/rs/rs,0.347375855534,0.108975875247,1.25608288114,-0.0421742129803,-0.0367870886073,0.00220648079315,0.998430356767
1524587607306911139,11537,1524587607302242937,/world,vicon/rs/rs,0.348150768906,0.109040042391,1.25820766556,-0.0325859328726,-0.0362241715012,0.00300081845709,0.998807770027
1524587607316800409,11538,1524587607312119351,/world,vicon/rs/rs,0.348833133571,0.109503882446,1.26084469967,-0.027199976537,-0.0351174262702,0.00336965720134,0.999007293797
1524587607326569818,11539,1524587607322076871,/world,vicon/rs/rs,0.349515183513,0.109914893352,1.26348575086,-0.0244423933824,-0.0350657525207,0.00298228570865,0.999081612471
1524587607336851341,11540,1524587607332249209,/world,vicon/rs/rs,0.350214808214,0.110290411563,1.26638493336,-0.0189553074595,-0.0349091906446,0.00280413482126,0.999206776176
1524587607346707004,11541,1524587607342149829,/world,vicon/rs/rs,0.350997776469,0.110723916099,1.26955077167,-0.00884093659886,-0.0346919364209,0.00301463457656,0.999354401284
1524587607357109252,11542,1524587607352363671,/world,vicon/rs/rs,0.35166501471,0.110989046879,1.2730063989,-0.0126272414077,-0.034724762561,0.00254482483815,0.999313898385
1524587607366718203,11543,1524587607362202920,/world,vicon/rs/rs,0.352366494413,0.111224402896,1.27686132041,-0.00540966151003,-0.0339078598975,0.00392045015917,0.999402632911
1524587607376489029,11544,1524587607372095735,/world,vicon/rs/rs,0.353184971683,0.111278641192,1.28034274197,-0.0104319026044,-0.0356229962533,0.00450713778101,0.999300687108
1524587607387146910,11545,1524587607382133090,/world,vicon/rs/rs,0.353900729901,0.111290300332,1.28452146774,0.00439400364182,-0.0337237675651,0.0068089886054,0.999398337955
1524587607396569485,11546,1524587607392097809,/world,vicon/rs/rs,0.354520410578,0.111754599323,1.2890431653,0.00621162054383,-0.031235801139,0.00579450508282,0.999475944787
1524587607406480219,11547,1524587607402064787,/world,vicon/rs/rs,0.355343624511,0.112020125234,1.29339257831,0.0136180613072,-0.0306228996893,0.00638970194625,0.999417809592
1524587607416633718,11548,1524587607412105738,/world,vicon/rs/rs,0.356057022268,0.112158277001,1.29764965637,0.0105035149686,-0.0304125437034,0.00629399431465,0.999462425004
1524587607426619604,11549,1524587607422166710,/world,vicon/rs/rs,0.356962484159,0.112561136847,1.30197899931,0.0158427389941,-0.0294883155793,0.00649984992965,0.999418430297
1524587607436585243,11550,1524587607432144213,/world,vicon/rs/rs,0.357823409195,0.112766668835,1.3062061958,0.0170203375991,-0.0289284538082,0.00660634851591,0.999414733145
1524587607446529451,11551,1524587607442114407,/world,vicon/rs/rs,0.358578338762,0.11248164676,1.30987647595,0.0157758212515,-0.030119567021,0.00879724204407,0.999383081545
1524587607456560660,11552,1524587607452114523,/world,vicon/rs/rs,0.359274947736,0.112514912353,1.31395865517,0.0194868869914,-0.0282157402993,0.0094274333805,0.999367428294
1524587607467045176,11553,1524587607462446641,/world,vicon/rs/rs,0.360107674941,0.112660816927,1.31771865627,0.0250421736046,-0.0269378946401,0.0104052359237,0.999269218198
1524587607476660965,11554,1524587607472203654,/world,vicon/rs/rs,0.360843766622,0.112292896269,1.32074767712,0.0146458342542,-0.0292594722567,0.0112886608205,0.999400794956
1524587607486528526,11555,1524587607482118080,/world,vicon/rs/rs,0.361531076046,0.112991770613,1.32478304681,0.0224867667806,-0.0251128877733,0.0100524839384,0.999381126375
1524587607496588387,11556,1524587607492100969,/world,vicon/rs/rs,0.362169203952,0.112858258467,1.3273829189,0.0297613536145,-0.0255684995571,0.0110180271813,0.999169213266
1524587607506504407,11557,1524587607502097621,/world,vicon/rs/rs,0.36272883716,0.112794080156,1.32993134037,0.0245883902191,-0.0267233281813,0.0107630442757,0.999282458405
1524587607516565380,11558,1524587607512129457,/world,vicon/rs/rs,0.363236660774,0.113445612346,1.33274667387,0.0322434243177,-0.0238219050014,0.00792546322638,0.999164683855
1524587607526674161,11559,1524587607522152966,/world,vicon/rs/rs,0.363429903243,0.112636506309,1.3342982558,0.0391270715771,-0.0279600068864,0.0132233220337,0.99875545257
1524587607536570076,11560,1524587607532176104,/world,vicon/rs/rs,0.363791104957,0.113045863603,1.33589103442,0.0444606259957,-0.0286583537102,0.0120630526145,0.998527132461
1524587607546714212,11561,1524587607542129894,/world,vicon/rs/rs,0.363951247427,0.113539535619,1.33768229279,0.0457892111497,-0.0274228583288,0.00967040575155,0.998527825469
1524587607556572350,11562,1524587607552055924,/world,vicon/rs/rs,0.36394318534,0.11302561195,1.33790472292,0.042638832775,-0.0307952109032,0.0116988657326,0.998547305572
1524587607566650586,11563,1524587607562129700,/world,vicon/rs/rs,0.363977179233,0.112773220686,1.33773994644,0.0439764469841,-0.033531327766,0.012906002499,0.998386276583
1524587607576635007,11564,1524587607572094182,/world,vicon/rs/rs,0.363995328878,0.113102360617,1.33779268135,0.0468285924581,-0.0338103732935,0.0126021832972,0.99825103384
1524587607587103169,11565,1524587607582496553,/world,vicon/rs/rs,0.363762829601,0.113705129257,1.33806674134,0.0538535046933,-0.030762722047,0.0104560072058,0.998020103444
1524587607597245936,11566,1524587607592306267,/world,vicon/rs/rs,0.363438291878,0.113239842844,1.3367363452,0.0417356033079,-0.0346190259623,0.0129337394092,0.99844498138
1524587607606910001,11567,1524587607602125783,/world,vicon/rs/rs,0.363086043506,0.113852458862,1.3359204681,0.0538373509899,-0.0323255887835,0.0116916712702,0.997957865228
1524587607616943943,11568,1524587607612388018,/world,vicon/rs/rs,0.36255104533,0.113495370781,1.33361509193,0.0533423974803,-0.0354600818343,0.0139903476463,0.997848406022
1524587607626752284,11569,1524587607622131945,/world,vicon/rs/rs,0.362345066727,0.113564343612,1.33076414726,0.0462117744888,-0.0406096757569,0.0147339386066,0.997997112815
1524587607637263244,11570,1524587607632721080,/world,vicon/rs/rs,0.361617837046,0.114129393835,1.32867247019,0.05654032039,-0.0384544909075,0.0129960759255,0.997574832436
1524587607646584401,11571,1524587607642116091,/world,vicon/rs/rs,0.361321531305,0.11430074951,1.32542744362,0.049814065584,-0.0423168522148,0.0134070263483,0.997771564304
1524587607656562823,11572,1524587607652066710,/world,vicon/rs/rs,0.3607354618,0.114776556155,1.32258162402,0.0531143114024,-0.0415682856623,0.0125036225276,0.997644529367
1524587607666612450,11573,1524587607662113302,/world,vicon/rs/rs,0.360288331885,0.114897634586,1.31883881543,0.0365545671731,-0.043671566177,0.0112308503088,0.998313791314
1524587607676603041,11574,1524587607672114460,/world,vicon/rs/rs,0.359776887595,0.114989938584,1.31518370533,0.0384949647517,-0.0432733140531,0.0121312240767,0.998247660344
1524587607686654909,11575,1524587607682104022,/world,vicon/rs/rs,0.359353256545,0.115206987325,1.31116700589,0.0287870267989,-0.0444048323574,0.0121829973406,0.998524457651
1524587607696683370,11576,1524587607692147440,/world,vicon/rs/rs,0.358973894414,0.11539241221,1.30670872201,0.0286431586945,-0.04618957047,0.0133305133689,0.998432967431
1524587607708086209,11577,1524587607703466630,/world,vicon/rs/rs,0.358587079468,0.115480522915,1.30231681043,0.0171232387445,-0.0475599972561,0.0132533016495,0.998633662236
1524587607716850918,11578,1524587607712168359,/world,vicon/rs/rs,0.358080560223,0.11553136435,1.29746369939,0.00863513182143,-0.0496878981469,0.0133012039518,0.99863888631
1524587607726653301,11579,1524587607722113318,/world,vicon/rs/rs,0.357604292827,0.115877131738,1.29298022636,0.0129758574939,-0.0484796822511,0.0130431241052,0.998654707316
1524587607736637678,11580,1524587607732045353,/world,vicon/rs/rs,0.357406794146,0.116030486454,1.28750007951,0.0013697202004,-0.0529729415945,0.0128602711556,0.998512195595
1524587607747119120,11581,1524587607742513952,/world,vicon/rs/rs,0.357203866914,0.116269272441,1.28207082674,-0.00184240957277,-0.0555082740548,0.0121406060144,0.998382713554
1524587607756989945,11582,1524587607752467859,/world,vicon/rs/rs,0.356896151927,0.116422956555,1.27661224019,-0.00279128836655,-0.0572282000765,0.0116105562087,0.998289705852
1524587607767258438,11583,1524587607762438220,/world,vicon/rs/rs,0.356870163377,0.116844869274,1.270808311,0.00608521872204,-0.0595501034635,0.0110534627127,0.998145568669
1524587607776674486,11584,1524587607772136236,/world,vicon/rs/rs,0.356699194845,0.117113293128,1.26538547909,0.00387077584241,-0.0601627083373,0.0098926249907,0.998132056188
1524587607786862220,11585,1524587607782369547,/world,vicon/rs/rs,0.356608902167,0.117359652035,1.26006378094,0.00374948281348,-0.0598694515175,0.00928701674882,0.998155970514
1524587607796741057,11586,1524587607792136366,/world,vicon/rs/rs,0.356786864566,0.117220982887,1.25423352256,-0.00503827301848,-0.0626470732458,0.0095069723764,0.997977743988
